{"cantidad":25,"departamentos":[{"centroide":{"lat":-28.2311093523606,"lon":-56.222206072693},"id":"18168","nombre":"Santo Tomé"},{"centroide":{"lat":-28.2124729464641,"lon":-58.6199065693295},"id":"18126","nombre":"Saladas"},{"centroide":{"lat":-27.7199243812297,"lon":-57.7876196199145},"id":"18063","nombre":"General Paz"},{"centroide":{"lat":-28.4973936042369,"lon":-58.930436271179},"id":"18007","nombre":"Bella Vista"},{"centroide":{"lat":-27.8758228176186,"lon":-57.409985810344},"id":"18154","nombre":"San Miguel"},{"centroide":{"lat":-29.4514531616824,"lon":-59.255912536825},"id":"18070","nombre":"Goya"},{"centroide":{"lat":-28.9879963080686,"lon":-58.9337155943843},"id":"18091","nombre":"Lavalle"},{"centroide":{"lat":-28.7057979959044,"lon":-58.6130197699847},"id":"18161","nombre":"San Roque"},{"centroide":{"lat":-28.7751848033313,"lon":-56.5115297991712},"id":"18056","nombre":"General Alvear"},{"centroide":{"lat":-30.2289552221138,"lon":-57.8702855877153},"id":"18112","nombre":"Monte Caseros"},{"centroide":{"lat":-29.9854770547953,"lon":-59.2414216570581},"id":"18049","nombre":"Esquina"},{"centroide":{"lat":-29.9995445616697,"lon":-58.7950373826119},"id":"18175","nombre":"Sauce"},{"centroide":{"lat":-29.6955178131115,"lon":-58.3248439252656},"id":"18035","nombre":"Curuzu Cuatia"},{"centroide":{"lat":-28.8289705275493,"lon":-56.9315923506787},"id":"18147","nombre":"San Martín"},{"centroide":{"lat":-29.0645100901984,"lon":-57.818389954722},"id":"18105","nombre":"Mercedes"},{"centroide":{"lat":-29.5936355856024,"lon":-57.2996337303242},"id":"18119","nombre":"Paso de los Libres"},{"centroide":{"lat":-27.522187514513,"lon":-58.7627061875969},"id":"18021","nombre":"Capital"},{"centroide":{"lat":-28.0163816801467,"lon":-58.1855624499057},"id":"18098","nombre":"Mburucuyá"},{"centroide":{"lat":-27.8961218833917,"lon":-58.6658439667722},"id":"18042","nombre":"Empedrado"},{"centroide":{"lat":-27.9114257175706,"lon":-56.7904763823004},"id":"18084","nombre":"Ituzaingó"},{"centroide":{"lat":-27.3823055047941,"lon":-58.5174860021794},"id":"18133","nombre":"San Cosme"},{"centroide":{"lat":-27.3460562357383,"lon":-58.0713754415461},"id":"18077","nombre":"Itatí"},{"centroide":{"lat":-27.6020473964888,"lon":-58.2685422687085},"id":"18140","nombre":"San Luis del Palmar"},{"centroide":{"lat":-27.4779720010057,"lon":-57.6113792118725},"id":"18014","nombre":"Berón de Astrada"},{"centroide":{"lat":-28.4083953496766,"lon":-58.031384641798},"id":"18028","nombre":"Concepción"}],"inicio":0,"parametros":{"campos":["id","centroide.lon","nombre","centroide.lat"],"max":200,"provincia":["18"]},"total":25}