{"cantidad":18,"departamentos":[{"centroide":{"lat":-33.7114684971791,"lon":-67.2475409227538},"id":"50042","nombre":"La Paz"},{"centroide":{"lat":-35.2178364156832,"lon":-67.0804473289428},"id":"50014","nombre":"General Alvear"},{"centroide":{"lat":-34.0753663960754,"lon":-69.0977010128957},"id":"50091","nombre":"San Carlos"},{"centroide":{"lat":-32.5247668775446,"lon":-69.26717572394},"id":"50049","nombre":"Las Heras"},{"centroide":{"lat":-32.582585367751,"lon":-67.8890727049671},"id":"50056","nombre":"Lavalle"},{"centroide":{"lat":-32.8806541047985,"lon":-68.8921657602392},"id":"50007","nombre":"Capital"},{"centroide":{"lat":-33.6177946030973,"lon":-67.9636620466005},"id":"50112","nombre":"Santa Rosa"},{"centroide":{"lat":-33.419707109754,"lon":-68.6121759957283},"id":"50084","nombre":"Rivadavia"},{"centroide":{"lat":-33.2915070191465,"lon":-69.3019667535127},"id":"50126","nombre":"Tupungato"},{"centroide":{"lat":-34.9445449681903,"lon":-68.3826783125854},"id":"50105","nombre":"San Rafael"},{"centroide":{"lat":-36.1572730441871,"lon":-69.3135099463311},"id":"50077","nombre":"Malargüe"},{"centroide":{"lat":-33.6223342938194,"lon":-69.5078054633807},"id":"50119","nombre":"Tunuyán"},{"centroide":{"lat":-33.0382520812765,"lon":-69.4437142136667},"id":"50063","nombre":"Luján de Cuyo"},{"centroide":{"lat":-32.8910429154042,"lon":-68.7323728513948},"id":"50028","nombre":"Guaymallén"},{"centroide":{"lat":-32.9775099458466,"lon":-68.6521739904164},"id":"50070","nombre":"Maipú"},{"centroide":{"lat":-32.9297600556689,"lon":-68.8890844545155},"id":"50021","nombre":"Godoy Cruz"},{"centroide":{"lat":-33.1462075241433,"lon":-68.4803420038399},"id":"50035","nombre":"Junín"},{"centroide":{"lat":-32.9088785853185,"lon":-68.2844229443887},"id":"50098","nombre":"San Martín"}],"inicio":0,"parametros":{"campos":["id","centroide.lon","nombre","centroide.lat"],"max":200,"provincia":["50"]},"total":18}