{"cantidad":19,"departamentos":[{"centroide":{"lat":-33.4855834326751,"lon":-60.85138406701},"id":"82028","nombre":"Villa Constitución"},{"centroide":{"lat":-31.4753563662874,"lon":-60.6694790125744},"id":"82063","nombre":"La Capital"},{"centroide":{"lat":-28.9699286424835,"lon":-60.4135430497849},"id":"82133","nombre":"Vera"},{"centroide":{"lat":-28.849605091735,"lon":-61.3983535538115},"id":"82077","nombre":"9 de Julio"},{"centroide":{"lat":-31.0546413323001,"lon":-60.125807734045},"id":"82035","nombre":"Garay"},{"centroide":{"lat":-31.3153379046182,"lon":-61.1094808024842},"id":"82070","nombre":"Las Colonias"},{"centroide":{"lat":-30.1041461066388,"lon":-59.8980704738644},"id":"82098","nombre":"San Javier"},{"centroide":{"lat":-33.2214972343879,"lon":-61.5310164822665},"id":"82014","nombre":"Caseros"},{"centroide":{"lat":-33.1278557358532,"lon":-60.7108416659256},"id":"82084","nombre":"Rosario"},{"centroide":{"lat":-32.9423146043516,"lon":-60.9615014674026},"id":"82119","nombre":"San Lorenzo"},{"centroide":{"lat":-32.7060836088838,"lon":-61.2733877091661},"id":"82056","nombre":"Iriondo"},{"centroide":{"lat":-32.6103027395973,"lon":-61.7042951949086},"id":"82007","nombre":"Belgrano"},{"centroide":{"lat":-32.1537713586804,"lon":-61.0481265781191},"id":"82105","nombre":"San Jerónimo"},{"centroide":{"lat":-30.5304248150144,"lon":-60.4886940672765},"id":"82112","nombre":"San Justo"},{"centroide":{"lat":-30.2283191431559,"lon":-61.360015159641},"id":"82091","nombre":"San Cristóbal"},{"centroide":{"lat":-28.6719704542176,"lon":-59.5266516978974},"id":"82049","nombre":"General Obligado"},{"centroide":{"lat":-33.9251483443292,"lon":-61.9449986852751},"id":"82042","nombre":"General López"},{"centroide":{"lat":-32.0125797507259,"lon":-61.8082508211602},"id":"82126","nombre":"San Martín"},{"centroide":{"lat":-31.2314149716439,"lon":-61.6569626868615},"id":"82021","nombre":"Castellanos"}],"inicio":0,"parametros":{"campos":["id","centroide.lon","nombre","centroide.lat"],"max":200,"provincia":["82"]},"total":19}