{"cantidad":16,"departamentos":[{"centroide":{"lat":-23.7855349092159,"lon":-64.8287565421131},"id":"38035","nombre":"Ledesma"},{"centroide":{"lat":-24.447823040536,"lon":-65.1011266142907},"id":"38014","nombre":"El Carmen"},{"centroide":{"lat":-24.3467258804414,"lon":-65.4468528811404},"id":"38056","nombre":"San Antonio"},{"centroide":{"lat":-23.0821382910047,"lon":-65.4089124214828},"id":"38028","nombre":"Humahuaca"},{"centroide":{"lat":-22.2906705371725,"lon":-65.5669616842196},"id":"38112","nombre":"Yaví"},{"centroide":{"lat":-22.137931595162,"lon":-66.227664877192},"id":"38077","nombre":"Santa Catalina"},{"centroide":{"lat":-24.2985497355434,"lon":-64.8110140944895},"id":"38063","nombre":"San Pedro"},{"centroide":{"lat":-23.4670612447247,"lon":-65.0119194137172},"id":"38105","nombre":"Valle Grande"},{"centroide":{"lat":-23.5204314374652,"lon":-66.6617993267455},"id":"38084","nombre":"Susques"},{"centroide":{"lat":-23.560543852464,"lon":-65.3197513527091},"id":"38094","nombre":"Tilcara"},{"centroide":{"lat":-24.1949225444459,"lon":-65.1264498289923},"id":"38042","nombre":"Palpalá"},{"centroide":{"lat":-22.9392350234639,"lon":-65.9346878202021},"id":"38007","nombre":"Cochinoca"},{"centroide":{"lat":-23.7434725633393,"lon":-65.696096204681},"id":"38098","nombre":"Tumbaya"},{"centroide":{"lat":-24.0893413107767,"lon":-65.4484768876505},"id":"38021","nombre":"Dr. Manuel Belgrano"},{"centroide":{"lat":-24.0075465739997,"lon":-64.4023110880998},"id":"38070","nombre":"Santa Bárbara"},{"centroide":{"lat":-22.6216157957901,"lon":-66.5415733150047},"id":"38049","nombre":"Rinconada"}],"inicio":0,"parametros":{"campos":["id","centroide.lon","nombre","centroide.lat"],"max":200,"provincia":["38"]},"total":16}