{"cantidad":18,"departamentos":[{"centroide":{"lat":-29.449795605204,"lon":-68.3284822964489},"id":"46028","nombre":"Coronel Felipe Varela"},{"centroide":{"lat":-30.1144612462884,"lon":-67.3355202231145},"id":"46105","nombre":"Independencia"},{"centroide":{"lat":-28.8599829479001,"lon":-66.9185847556269},"id":"46021","nombre":"Castro Barros"},{"centroide":{"lat":-31.0066417359043,"lon":-66.0590548632025},"id":"46084","nombre":"General Ocampo"},{"centroide":{"lat":-30.1677065304375,"lon":-65.9562869452052},"id":"46035","nombre":"Chamical"},{"centroide":{"lat":-28.5330735278082,"lon":-66.7191515033817},"id":"46007","nombre":"Arauco"},{"centroide":{"lat":-28.7904353562793,"lon":-68.6977547342214},"id":"46077","nombre":"General Lamadrid"},{"centroide":{"lat":-30.5776916502152,"lon":-65.9316310510947},"id":"46063","nombre":"General Belgrano"},{"centroide":{"lat":-28.3164203776524,"lon":-68.525398463115},"id":"46098","nombre":"Vinchina"},{"centroide":{"lat":-29.4604898579358,"lon":-66.3525089002799},"id":"46014","nombre":"Capital"},{"centroide":{"lat":-29.1585269700688,"lon":-67.0658836337793},"id":"46126","nombre":"Sanagasta"},{"centroide":{"lat":-29.3959374753391,"lon":-67.4278867891974},"id":"46042","nombre":"Chilecito"},{"centroide":{"lat":-30.3128975389814,"lon":-66.6630521188972},"id":"46056","nombre":"General Ángel V. Peñaloza"},{"centroide":{"lat":-30.800959034536,"lon":-66.868104514456},"id":"46070","nombre":"General Juan F. Quiroga"},{"centroide":{"lat":-31.4205977732086,"lon":-66.6788621651991},"id":"46112","nombre":"Rosario Vera Peñaloza"},{"centroide":{"lat":-31.6413069709194,"lon":-66.1459756728153},"id":"46091","nombre":"General San Martín"},{"centroide":{"lat":-28.6973037998771,"lon":-67.5592920371088},"id":"46049","nombre":"Famatina"},{"centroide":{"lat":-28.5433309063736,"lon":-67.1581530651936},"id":"46119","nombre":"San Blas de Los Sauces"}],"inicio":0,"parametros":{"campos":["id","centroide.lon","nombre","centroide.lat"],"max":200,"provincia":["46"]},"total":18}