{"cantidad":9,"departamentos":[{"centroide":{"lat":-32.1656565638277,"lon":-66.5422509844147},"id":"74007","nombre":"Ayacucho"},{"centroide":{"lat":-32.7356115411335,"lon":-66.7150069507327},"id":"74014","nombre":"Belgrano"},{"centroide":{"lat":-35.369087077487,"lon":-65.8148193795656},"id":"74042","nombre":"Gobernador Dupuy"},{"centroide":{"lat":-32.216548125306,"lon":-65.3939560584901},"id":"74049","nombre":"Junín"},{"centroide":{"lat":-32.7269672116015,"lon":-65.1982374778981},"id":"74028","nombre":"Chacabuco"},{"centroide":{"lat":-33.9008795169272,"lon":-66.5025775641531},"id":"74056","nombre":"Juan Martín de Pueyrredón"},{"centroide":{"lat":-33.8905514573194,"lon":-65.56285207424},"id":"74035","nombre":"General Pedernera"},{"centroide":{"lat":-32.5784192360116,"lon":-65.7095887724917},"id":"74063","nombre":"Libertador General San Martín"},{"centroide":{"lat":-33.1068820542746,"lon":-65.900790202998},"id":"74021","nombre":"Coronel Pringles"}],"inicio":0,"parametros":{"campos":["id","centroide.lon","nombre","centroide.lat"],"max":200,"provincia":["74"]},"total":9}