[{"centroide":{"lat":-28.1034003361447,"lon":-65.3076846046354},"id":"10098","nombre":"Santa Rosa"},{"centroide":{"lat":-28.9331053161662,"lon":-65.0949655869376},"id":"10070","nombre":"La Paz"},{"centroide":{"lat":-27.6337582271366,"lon":-67.0181224346383},"id":"10035","nombre":"Belén"},{"centroide":{"lat":-28.4846581947085,"lon":-65.786789293763},"id":"10049","nombre":"Capital"},{"centroide":{"lat":-28.809829766706,"lon":-65.5021019996524},"id":"10014","nombre":"Ancasti"},{"centroide":{"lat":-26.0632957365736,"lon":-67.4116706391736},"id":"10028","nombre":"Antofagasta de la Sierra"},{"centroide":{"lat":-28.7326533523263,"lon":-65.9692671337205},"id":"10042","nombre":"Capayán"},{"centroide":{"lat":-27.5732225954972,"lon":-66.3235466394645},"id":"10021","nombre":"Andalgalá"},{"centroide":{"lat":-28.1764379052117,"lon":-65.7863037835082},"id":"10007","nombre":"Ambato"},{"centroide":{"lat":-28.4017030273125,"lon":-65.7123014190702},"id":"10063","nombre":"Fray Mamerto Esquiú"},{"centroide":{"lat":-28.1537649054231,"lon":-65.6696062414473},"id":"10077","nombre":"Paclín"},{"centroide":{"lat":-28.3027477561138,"lon":-65.369376719249},"id":"10056","nombre":"El Alto"},{"centroide":{"lat":-26.6891167120231,"lon":-66.0188844413109},"id":"10091","nombre":"Santa María"},{"centroide":{"lat":-28.173337080009,"lon":-66.2145148644181},"id":"10084","nombre":"Pomán"},{"centroide":{"lat":-28.4645930905709,"lon":-65.7273374100484},"id":"10112","nombre":"Valle Viejo"},{"centroide":{"lat":-28.0637510698675,"lon":-67.5802695760226},"id":"10105","nombre":"Tinogasta"}]