{"departamentos":[{"centroide":{"lat":-24.899748268594,"lon":-65.4884058419647},"id":"66035","nombre":"Cerrillos"},{"centroide":{"lat":-24.1928479299753,"lon":-62.8855846188739},"id":"66133","nombre":"Rivadavia"},{"centroide":{"lat":-26.0961790089843,"lon":-65.0610119525095},"id":"66084","nombre":"La Candelaria"},{"centroide":{"lat":-24.9780005506773,"lon":-65.5804316181731},"id":"66147","nombre":"Rosario de Lerma"},{"centroide":{"lat":-26.0765384358548,"lon":-65.9862897320293},"id":"66021","nombre":"Cafayate"},{"centroide":{"lat":-25.5235484724461,"lon":-65.5187644501143},"id":"66063","nombre":"Guachipas"},{"centroide":{"lat":-24.7823766403156,"lon":-65.4141329991055},"id":"66028","nombre":"Capital"},{"centroide":{"lat":-25.1201640072396,"lon":-66.1679494412162},"id":"66014","nombre":"Cachi"},{"centroide":{"lat":-25.1056023710125,"lon":-65.5368903535961},"id":"66042","nombre":"Chicoana"},{"centroide":{"lat":-25.4719724619835,"lon":-65.5719838890076},"id":"66098","nombre":"La Viña"},{"centroide":{"lat":-25.5077205377148,"lon":-64.9821245409304},"id":"66112","nombre":"Metán"},{"centroide":{"lat":-25.4442432937572,"lon":-66.3088500894253},"id":"66119","nombre":"Molinos"},{"centroide":{"lat":-24.6684436198384,"lon":-65.0493527755239},"id":"66049","nombre":"General Güemes"},{"centroide":{"lat":-25.8954496537353,"lon":-65.9374115460195},"id":"66154","nombre":"San Carlos"},{"centroide":{"lat":-25.1294324707809,"lon":-64.1385893694805},"id":"66007","nombre":"Anta"},{"centroide":{"lat":-24.6049486234217,"lon":-65.3823377302988},"id":"66077","nombre":"La Caldera"},{"centroide":{"lat":-25.8088971820865,"lon":-64.9840618242783},"id":"66140","nombre":"Rosario de la Frontera"},{"centroide":{"lat":-22.2294615004585,"lon":-64.9503255468472},"id":"66161","nombre":"Santa Victoria"},{"centroide":{"lat":-22.5098645099451,"lon":-63.7970472996098},"id":"66056","nombre":"General José de San Martín"},{"centroide":{"lat":-22.7789158765788,"lon":-65.2063598136374},"id":"66070","nombre":"Iruya"},{"centroide":{"lat":-24.2099310029638,"lon":-66.315435998094},"id":"66105","nombre":"Los Andes"},{"centroide":{"lat":-23.1298138873916,"lon":-64.3185884747041},"id":"66126","nombre":"Orán"},{"centroide":{"lat":-24.7129010493054,"lon":-66.1997385176463},"id":"66091","nombre":"La Poma"}],"cantidad":23}