{"cantidad":77,"inicio":0,"localidades_censales":[{"categoria":"Localidad simple","centroide":{"lat":-28.507677249655,"lon":-59.04433283502},"departamento":{"id":"18007","nombre":"Bella Vista"},"funcion":"CABECERA_DEPARTAMENTO","id":"18007010","municipio":{"id":"180007","nombre":"Bella Vista"},"nombre":"Bella Vista","provincia":{"id":"18","nombre":"Corrientes"}},{"categoria":"Localidad simple","centroide":{"lat":-27.5506233626678,"lon":-57.5376245501398},"departamento":{"id":"18014","nombre":"Berón de Astrada"},"funcion":"CABECERA_DEPARTAMENTO","id":"18014010","municipio":{"id":"180014","nombre":"Berón de Astrada"},"nombre":"Berón de Astrada","provincia":{"id":"18","nombre":"Corrientes"}},{"categoria":"Localidad simple","centroide":{"lat":-27.370426921625,"lon":-57.6552249966379},"departamento":{"id":"18014","nombre":"Berón de Astrada"},"funcion":null,"id":"18014020","municipio":{"id":"180014","nombre":"Berón de Astrada"},"nombre":"Yahapé","provincia":{"id":"18","nombre":"Corrientes"}},{"categoria":"Componente de localidad compuesta","centroide":{"lat":-27.4632821641043,"lon":-58.8392333481757},"departamento":{"id":"18021","nombre":"Capital"},"funcion":"CAPITAL_PROVINCIA","id":"18021020","municipio":{"id":"180021","nombre":"Corrientes"},"nombre":"Corrientes","provincia":{"id":"18","nombre":"Corrientes"}},{"categoria":"Localidad simple","centroide":{"lat":-27.492827539732,"lon":-58.7167656641361},"departamento":{"id":"18021","nombre":"Capital"},"funcion":null,"id":"18021030","municipio":{"id":"180021","nombre":"Corrientes"},"nombre":"Laguna Brava","provincia":{"id":"18","nombre":"Corrientes"}},{"categoria":"Localidad simple","centroide":{"lat":-27.5811452851025,"lon":-58.7419831223036},"departamento":{"id":"18021","nombre":"Capital"},"funcion":null,"id":"18021040","municipio":{"id":"180028","nombre":"Riachuelo"},"nombre":"Riachuelo","provincia":{"id":"18","nombre":"Corrientes"}},{"categoria":"Localidad simple","centroide":{"lat":-27.5712103716288,"lon":-58.6958799100026},"departamento":{"id":"18021","nombre":"Capital"},"funcion":null,"id":"18021050","municipio":{"id":"180028","nombre":"Riachuelo"},"nombre":"San Cayetano","provincia":{"id":"18","nombre":"Corrientes"}},{"categoria":"Localidad simple","centroide":{"lat":-28.3924910085097,"lon":-57.8866807708097},"departamento":{"id":"18028","nombre":"Concepción"},"funcion":"CABECERA_DEPARTAMENTO","id":"18028010","municipio":{"id":"180042","nombre":"Concepción"},"nombre":"Concepción","provincia":{"id":"18","nombre":"Corrientes"}},{"categoria":"Localidad simple","centroide":{"lat":-28.2674256970164,"lon":-58.1220612497619},"departamento":{"id":"18028","nombre":"Concepción"},"funcion":null,"id":"18028020","municipio":{"id":"180035","nombre":"Colonia Santa Rosa"},"nombre":"Santa Rosa","provincia":{"id":"18","nombre":"Corrientes"}},{"categoria":"Localidad simple","centroide":{"lat":-28.3720748439642,"lon":-58.3252896634835},"departamento":{"id":"18028","nombre":"Concepción"},"funcion":null,"id":"18028040","municipio":{"id":"180056","nombre":"Tatacuá"},"nombre":"Tatacua","provincia":{"id":"18","nombre":"Corrientes"}},{"categoria":"Localidad simple","centroide":{"lat":-28.3062678179647,"lon":-58.2862966985736},"departamento":{"id":"18028","nombre":"Concepción"},"funcion":null,"id":"18028030","municipio":{"id":"180049","nombre":"Tabay"},"nombre":"Tabay","provincia":{"id":"18","nombre":"Corrientes"}},{"categoria":"Localidad simple","centroide":{"lat":-29.9787827263917,"lon":-58.3024356720991},"departamento":{"id":"18035","nombre":"Curuzu Cuatia"},"funcion":null,"id":"18035010","municipio":{"id":"180063","nombre":"Curuzú Cuatiá"},"nombre":"Cazadores Correntinos","provincia":{"id":"18","nombre":"Corrientes"}},{"categoria":"Localidad simple","centroide":{"lat":-29.7915233554051,"lon":-58.049945341682},"departamento":{"id":"18035","nombre":"Curuzu Cuatia"},"funcion":"CABECERA_DEPARTAMENTO","id":"18035020","municipio":{"id":"180063","nombre":"Curuzú Cuatiá"},"nombre":"Curuzú Cuatiá","provincia":{"id":"18","nombre":"Corrientes"}},{"categoria":"Localidad simple","centroide":{"lat":-29.3404796154785,"lon":-58.6080890462901},"departamento":{"id":"18035","nombre":"Curuzu Cuatia"},"funcion":null,"id":"18035030","municipio":{"id":"180070","nombre":"Perugorría"},"nombre":"Perugorría","provincia":{"id":"18","nombre":"Corrientes"}},{"categoria":"Localidad simple","centroide":{"lat":-27.7035440870919,"lon":-58.7686060583955},"departamento":{"id":"18042","nombre":"Empedrado"},"funcion":null,"id":"18042010","municipio":{"id":"180077","nombre":"Empedrado"},"nombre":"El Sombrero","provincia":{"id":"18","nombre":"Corrientes"}},{"categoria":"Localidad simple","centroide":{"lat":-27.9524556932224,"lon":-58.8074763893306},"departamento":{"id":"18042","nombre":"Empedrado"},"funcion":"CABECERA_DEPARTAMENTO","id":"18042020","municipio":{"id":"180077","nombre":"Empedrado"},"nombre":"Empedrado","provincia":{"id":"18","nombre":"Corrientes"}},{"categoria":"Localidad simple","centroide":{"lat":-30.0159284150173,"lon":-59.5309812132883},"departamento":{"id":"18049","nombre":"Esquina"},"funcion":"CABECERA_DEPARTAMENTO","id":"18049010","municipio":{"id":"180084","nombre":"Esquina"},"nombre":"Esquina","provincia":{"id":"18","nombre":"Corrientes"}},{"categoria":"Localidad simple","centroide":{"lat":-30.2195813152624,"lon":-59.3906028568407},"departamento":{"id":"18049","nombre":"Esquina"},"funcion":null,"id":"18049020","municipio":{"id":"180091","nombre":"Pueblo Libertador"},"nombre":"Pueblo Libertador","provincia":{"id":"18","nombre":"Corrientes"}},{"categoria":"Localidad simple","centroide":{"lat":-29.0985990956679,"lon":-56.5521631297617},"departamento":{"id":"18056","nombre":"General Alvear"},"funcion":"CABECERA_DEPARTAMENTO","id":"18056010","municipio":{"id":"180098","nombre":"Alvear"},"nombre":"Alvear","provincia":{"id":"18","nombre":"Corrientes"}},{"categoria":"Localidad simple","centroide":{"lat":-28.8266239157245,"lon":-56.469525963544},"departamento":{"id":"18056","nombre":"General Alvear"},"funcion":null,"id":"18056020","municipio":{"id":"180105","nombre":"Estación Torrent"},"nombre":"Estación Torrent","provincia":{"id":"18","nombre":"Corrientes"}},{"categoria":"Localidad simple","centroide":{"lat":-27.4250661277127,"lon":-57.3376993601456},"departamento":{"id":"18063","nombre":"General Paz"},"funcion":null,"id":"18063010","municipio":{"id":"180119","nombre":"Itá Ibaté"},"nombre":"Itá Ibaté","provincia":{"id":"18","nombre":"Corrientes"}},{"categoria":"Localidad simple","centroide":{"lat":-27.7329656323888,"lon":-57.9193852921423},"departamento":{"id":"18063","nombre":"General Paz"},"funcion":null,"id":"18063020","municipio":{"id":"180126","nombre":"Lomas de Vallejos"},"nombre":"Lomas de Vallejos","provincia":{"id":"18","nombre":"Corrientes"}},{"categoria":"Localidad simple","centroide":{"lat":-27.751995828158,"lon":-57.6225136238666},"departamento":{"id":"18063","nombre":"General Paz"},"funcion":"CABECERA_DEPARTAMENTO","id":"18063030","municipio":{"id":"180112","nombre":"Caá Catí"},"nombre":"Nuestra Señora del Rosario de Caá Catí","provincia":{"id":"18","nombre":"Corrientes"}},{"categoria":"Localidad simple","centroide":{"lat":-27.9407694115664,"lon":-57.9009156630285},"departamento":{"id":"18063","nombre":"General Paz"},"funcion":null,"id":"18063040","municipio":{"id":"180133","nombre":"Palmar Grande"},"nombre":"Palmar Grande","provincia":{"id":"18","nombre":"Corrientes"}},{"categoria":"Localidad simple","centroide":{"lat":-29.1457706796124,"lon":-59.1820838282047},"departamento":{"id":"18070","nombre":"Goya"},"funcion":null,"id":"18070010","municipio":{"id":"180137","nombre":"Carolina"},"nombre":"Carolina","provincia":{"id":"18","nombre":"Corrientes"}},{"categoria":"Localidad simple","centroide":{"lat":-29.1413439330685,"lon":-59.2605311638707},"departamento":{"id":"18070","nombre":"Goya"},"funcion":"CABECERA_DEPARTAMENTO","id":"18070020","municipio":{"id":"180140","nombre":"Goya"},"nombre":"Goya","provincia":{"id":"18","nombre":"Corrientes"}},{"categoria":"Localidad simple","centroide":{"lat":-27.2693038533077,"lon":-58.2434782721968},"departamento":{"id":"18077","nombre":"Itatí"},"funcion":"CABECERA_DEPARTAMENTO","id":"18077010","municipio":{"id":"180147","nombre":"Itatí"},"nombre":"Itatí","provincia":{"id":"18","nombre":"Corrientes"}},{"categoria":"Localidad simple","centroide":{"lat":-27.3659289314983,"lon":-58.3003087514316},"departamento":{"id":"18077","nombre":"Itatí"},"funcion":null,"id":"18077020","municipio":{"id":"180154","nombre":"Ramada Paso"},"nombre":"Ramada Paso","provincia":{"id":"18","nombre":"Corrientes"}},{"categoria":"Componente de localidad compuesta","centroide":{"lat":-27.9156591543749,"lon":-55.8233285990026},"departamento":{"id":"18084","nombre":"Ituzaingó"},"funcion":null,"id":"18084010","municipio":{"id":"180161","nombre":"Colonia Liebig'S"},"nombre":"Colonia Liebig's","provincia":{"id":"18","nombre":"Corrientes"}},{"categoria":"Localidad simple","centroide":{"lat":-27.5910429413741,"lon":-56.7039739448011},"departamento":{"id":"18084","nombre":"Ituzaingó"},"funcion":"CABECERA_DEPARTAMENTO","id":"18084020","municipio":{"id":"180168","nombre":"Ituzaingó"},"nombre":"Ituzaingó","provincia":{"id":"18","nombre":"Corrientes"}},{"categoria":"Localidad simple","centroide":{"lat":-27.5073854602181,"lon":-56.7411670700869},"departamento":{"id":"18084","nombre":"Ituzaingó"},"funcion":null,"id":"18084030","municipio":{"id":"180175","nombre":"San Antonio"},"nombre":"San Antonio","provincia":{"id":"18","nombre":"Corrientes"}},{"categoria":"Localidad simple","centroide":{"lat":-27.745785086345,"lon":-55.9000479407003},"departamento":{"id":"18084","nombre":"Ituzaingó"},"funcion":null,"id":"18084040","municipio":{"id":"180182","nombre":"San Carlos"},"nombre":"San Carlos","provincia":{"id":"18","nombre":"Corrientes"}},{"categoria":"Localidad simple","centroide":{"lat":-27.6329473311043,"lon":-56.9062014827101},"departamento":{"id":"18084","nombre":"Ituzaingó"},"funcion":null,"id":"18084050","municipio":{"id":"180186","nombre":"Villa Olivari"},"nombre":"Villa Olivari","provincia":{"id":"18","nombre":"Corrientes"}},{"categoria":"Localidad simple","centroide":{"lat":-28.8357350715385,"lon":-59.0068578339405},"departamento":{"id":"18091","nombre":"Lavalle"},"funcion":null,"id":"18091010","municipio":{"id":"180189","nombre":"Cruz de los Milagros"},"nombre":"Cruz de los Milagros","provincia":{"id":"18","nombre":"Corrientes"}},{"categoria":"Localidad simple","centroide":{"lat":-28.9108688742576,"lon":-58.9359577546112},"departamento":{"id":"18091","nombre":"Lavalle"},"funcion":null,"id":"18091020","municipio":{"id":"180196","nombre":"Gobernador Martínez"},"nombre":"Gobernador Juan E. Martínez","provincia":{"id":"18","nombre":"Corrientes"}},{"categoria":"Localidad simple","centroide":{"lat":-29.0249812495642,"lon":-59.1818570100087},"departamento":{"id":"18091","nombre":"Lavalle"},"funcion":null,"id":"18091030","municipio":{"id":"180203","nombre":"Lavalle"},"nombre":"Lavalle","provincia":{"id":"18","nombre":"Corrientes"}},{"categoria":"Localidad simple","centroide":{"lat":-28.9847966992846,"lon":-59.1017576429993},"departamento":{"id":"18091","nombre":"Lavalle"},"funcion":"CABECERA_DEPARTAMENTO","id":"18091040","municipio":{"id":"180210","nombre":"Santa Lucía"},"nombre":"Santa Lucía","provincia":{"id":"18","nombre":"Corrientes"}},{"categoria":"Localidad simple","centroide":{"lat":-28.9940335487267,"lon":-59.0774380130144},"departamento":{"id":"18091","nombre":"Lavalle"},"funcion":null,"id":"18091050","municipio":{"id":"180210","nombre":"Santa Lucía"},"nombre":"Villa Córdoba","provincia":{"id":"18","nombre":"Corrientes"}},{"categoria":"Localidad simple","centroide":{"lat":-29.0295902166451,"lon":-58.9097321884448},"departamento":{"id":"18091","nombre":"Lavalle"},"funcion":null,"id":"18091060","municipio":{"id":"180217","nombre":"Yataytí Calle"},"nombre":"Yatayti Calle","provincia":{"id":"18","nombre":"Corrientes"}},{"categoria":"Localidad simple","centroide":{"lat":-28.0460572855636,"lon":-58.224984006822},"departamento":{"id":"18098","nombre":"Mburucuyá"},"funcion":"CABECERA_DEPARTAMENTO","id":"18098010","municipio":{"id":"180224","nombre":"Mburucuyá"},"nombre":"Mburucuyá","provincia":{"id":"18","nombre":"Corrientes"}},{"categoria":"Localidad simple","centroide":{"lat":-29.1059197645419,"lon":-58.3424746747141},"departamento":{"id":"18105","nombre":"Mercedes"},"funcion":null,"id":"18105010","municipio":{"id":"180231","nombre":"Felipe Yofré"},"nombre":"Felipe Yofré","provincia":{"id":"18","nombre":"Corrientes"}},{"categoria":"Localidad simple","centroide":{"lat":-29.3763665588886,"lon":-58.1960231004583},"departamento":{"id":"18105","nombre":"Mercedes"},"funcion":null,"id":"18105020","municipio":{"id":"180238","nombre":"Mariano I. Loza"},"nombre":"Mariano I. Loza","provincia":{"id":"18","nombre":"Corrientes"}},{"categoria":"Localidad simple","centroide":{"lat":-29.1833885579996,"lon":-58.0742364424806},"departamento":{"id":"18105","nombre":"Mercedes"},"funcion":"CABECERA_DEPARTAMENTO","id":"18105030","municipio":{"id":"180245","nombre":"Mercedes"},"nombre":"Mercedes","provincia":{"id":"18","nombre":"Corrientes"}},{"categoria":"Localidad simple","centroide":{"lat":-30.0439760349315,"lon":-57.8235193980386},"departamento":{"id":"18112","nombre":"Monte Caseros"},"funcion":null,"id":"18112010","municipio":{"id":"180252","nombre":"Colonia Libertad"},"nombre":"Colonia Libertad","provincia":{"id":"18","nombre":"Corrientes"}},{"categoria":"Localidad simple","centroide":{"lat":-30.4178964519869,"lon":-57.8560694385919},"departamento":{"id":"18112","nombre":"Monte Caseros"},"funcion":null,"id":"18112030","municipio":{"id":"180259","nombre":"Juan Pujol"},"nombre":"Juan Pujol","provincia":{"id":"18","nombre":"Corrientes"}},{"categoria":"Localidad simple","centroide":{"lat":-30.6176804049267,"lon":-57.9628254585589},"departamento":{"id":"18112","nombre":"Monte Caseros"},"funcion":null,"id":"18112040","municipio":{"id":"180266","nombre":"Mocoretá"},"nombre":"Mocoretá","provincia":{"id":"18","nombre":"Corrientes"}},{"categoria":"Localidad simple","centroide":{"lat":-30.2515527236356,"lon":-57.6388140007913},"departamento":{"id":"18112","nombre":"Monte Caseros"},"funcion":"CABECERA_DEPARTAMENTO","id":"18112050","municipio":{"id":"180273","nombre":"Monte Caseros"},"nombre":"Monte Caseros","provincia":{"id":"18","nombre":"Corrientes"}},{"categoria":"Localidad simple","centroide":{"lat":-29.9084817138799,"lon":-57.9581770148793},"departamento":{"id":"18112","nombre":"Monte Caseros"},"funcion":null,"id":"18112060","municipio":{"id":"180252","nombre":"Colonia Libertad"},"nombre":"Parada Acuña","provincia":{"id":"18","nombre":"Corrientes"}},{"categoria":"Localidad simple","centroide":{"lat":-30.3190400199696,"lon":-57.7289868202181},"departamento":{"id":"18112","nombre":"Monte Caseros"},"funcion":null,"id":"18112070","municipio":{"id":"180273","nombre":"Monte Caseros"},"nombre":"Parada Labougle","provincia":{"id":"18","nombre":"Corrientes"}},{"categoria":"Localidad simple","centroide":{"lat":-29.8203735190576,"lon":-57.4296479379825},"departamento":{"id":"18119","nombre":"Paso de los Libres"},"funcion":null,"id":"18119010","municipio":{"id":"180280","nombre":"Bonpland"},"nombre":"Bonpland","provincia":{"id":"18","nombre":"Corrientes"}},{"categoria":"Localidad simple","centroide":{"lat":-29.9053454011034,"lon":-57.5743693513377},"departamento":{"id":"18119","nombre":"Paso de los Libres"},"funcion":null,"id":"18119020","municipio":{"id":"180287","nombre":"Parada Pucheta"},"nombre":"Parada Pucheta","provincia":{"id":"18","nombre":"Corrientes"}},{"categoria":"Localidad simple","centroide":{"lat":-29.7116998596983,"lon":-57.0877441027999},"departamento":{"id":"18119","nombre":"Paso de los Libres"},"funcion":"CABECERA_DEPARTAMENTO","id":"18119030","municipio":{"id":"180294","nombre":"Paso de los Libres"},"nombre":"Paso de los Libres","provincia":{"id":"18","nombre":"Corrientes"}},{"categoria":"Localidad simple","centroide":{"lat":-29.5043114402955,"lon":-56.9760306946844},"departamento":{"id":"18119","nombre":"Paso de los Libres"},"funcion":null,"id":"18119040","municipio":{"id":"180301","nombre":"Tapebicuá"},"nombre":"Tapebicuá","provincia":{"id":"18","nombre":"Corrientes"}},{"categoria":"Localidad simple","centroide":{"lat":-28.2553374256058,"lon":-58.6238010038908},"departamento":{"id":"18126","nombre":"Saladas"},"funcion":"CABECERA_DEPARTAMENTO","id":"18126010","municipio":{"id":"180308","nombre":"Saladas"},"nombre":"Saladas","provincia":{"id":"18","nombre":"Corrientes"}},{"categoria":"Localidad simple","centroide":{"lat":-28.1314603295453,"lon":-58.7668321022746},"departamento":{"id":"18126","nombre":"Saladas"},"funcion":null,"id":"18126020","municipio":{"id":"180315","nombre":"San Lorenzo"},"nombre":"San Lorenzo","provincia":{"id":"18","nombre":"Corrientes"}},{"categoria":"Localidad simple","centroide":{"lat":-27.433672194702,"lon":-58.624327887603},"departamento":{"id":"18133","nombre":"San Cosme"},"funcion":null,"id":"18133010","municipio":{"id":"180336","nombre":"Santa Ana"},"nombre":"Ingenio Primer Correntino","provincia":{"id":"18","nombre":"Corrientes"}},{"categoria":"Localidad simple","centroide":{"lat":-27.3150060127599,"lon":-58.5720142980631},"departamento":{"id":"18133","nombre":"San Cosme"},"funcion":null,"id":"18133020","municipio":{"id":"180322","nombre":"Paso de la Patria"},"nombre":"Paso de la Patria","provincia":{"id":"18","nombre":"Corrientes"}},{"categoria":"Localidad simple","centroide":{"lat":-27.3711801624716,"lon":-58.5115291113063},"departamento":{"id":"18133","nombre":"San Cosme"},"funcion":"CABECERA_DEPARTAMENTO","id":"18133030","municipio":{"id":"180329","nombre":"San Cosme"},"nombre":"San Cosme","provincia":{"id":"18","nombre":"Corrientes"}},{"categoria":"Localidad simple","centroide":{"lat":-27.455091402543,"lon":-58.6530388459631},"departamento":{"id":"18133","nombre":"San Cosme"},"funcion":null,"id":"18133040","municipio":{"id":"180336","nombre":"Santa Ana"},"nombre":"Santa Ana","provincia":{"id":"18","nombre":"Corrientes"}},{"categoria":"Localidad simple","centroide":{"lat":-27.5081078409756,"lon":-58.5554744159758},"departamento":{"id":"18140","nombre":"San Luis del Palmar"},"funcion":"CABECERA_DEPARTAMENTO","id":"18140010","municipio":{"id":"180350","nombre":"San Luis del Palmar"},"nombre":"San Luis del Palmar","provincia":{"id":"18","nombre":"Corrientes"}},{"categoria":"Localidad simple","centroide":{"lat":-28.5373400329857,"lon":-57.1712310407172},"departamento":{"id":"18147","nombre":"San Martín"},"funcion":null,"id":"18147010","municipio":{"id":"180357","nombre":"Colonia Carlos Pellegrini"},"nombre":"Colonia Carlos Pellegrini","provincia":{"id":"18","nombre":"Corrientes"}},{"categoria":"Localidad simple","centroide":{"lat":-29.3669865639555,"lon":-56.8292389472207},"departamento":{"id":"18147","nombre":"San Martín"},"funcion":null,"id":"18147020","municipio":{"id":"180364","nombre":"Guaviraví"},"nombre":"Guaviraví","provincia":{"id":"18","nombre":"Corrientes"}},{"categoria":"Localidad simple","centroide":{"lat":-29.1736584106926,"lon":-56.6450161726372},"departamento":{"id":"18147","nombre":"San Martín"},"funcion":"CABECERA_DEPARTAMENTO","id":"18147030","municipio":{"id":"180371","nombre":"La Cruz"},"nombre":"La Cruz","provincia":{"id":"18","nombre":"Corrientes"}},{"categoria":"Localidad simple","centroide":{"lat":-29.4706323042238,"lon":-56.8158358918792},"departamento":{"id":"18147","nombre":"San Martín"},"funcion":null,"id":"18147040","municipio":{"id":"180378","nombre":"Yapeyú"},"nombre":"Yapeyú","provincia":{"id":"18","nombre":"Corrientes"}},{"categoria":"Localidad simple","centroide":{"lat":-27.7684514067067,"lon":-57.274839083927},"departamento":{"id":"18154","nombre":"San Miguel"},"funcion":null,"id":"18154010","municipio":{"id":"180385","nombre":"Loreto"},"nombre":"Loreto","provincia":{"id":"18","nombre":"Corrientes"}},{"categoria":"Localidad simple","centroide":{"lat":-27.9947735055436,"lon":-57.5919539782996},"departamento":{"id":"18154","nombre":"San Miguel"},"funcion":"CABECERA_DEPARTAMENTO","id":"18154020","municipio":{"id":"180392","nombre":"San Miguel"},"nombre":"San Miguel","provincia":{"id":"18","nombre":"Corrientes"}},{"categoria":"Localidad simple","centroide":{"lat":-28.9549218176889,"lon":-58.5716489831846},"departamento":{"id":"18161","nombre":"San Roque"},"funcion":null,"id":"18161010","municipio":{"id":"180413","nombre":"Chavarría"},"nombre":"Chavarría","provincia":{"id":"18","nombre":"Corrientes"}},{"categoria":"Localidad simple","centroide":{"lat":-30.0125285200771,"lon":-57.8591295180443},"departamento":{"id":"18112","nombre":"Monte Caseros"},"funcion":null,"id":"18112020","municipio":{"id":"180252","nombre":"Colonia Libertad"},"nombre":"Estación Libertad","provincia":{"id":"18","nombre":"Corrientes"}},{"categoria":"Localidad simple","centroide":{"lat":-28.5252148833089,"lon":-58.4869345494056},"departamento":{"id":"18161","nombre":"San Roque"},"funcion":null,"id":"18161020","municipio":{"id":"180417","nombre":"Colonia Pando"},"nombre":"Colonia Pando","provincia":{"id":"18","nombre":"Corrientes"}},{"categoria":"Localidad simple","centroide":{"lat":-28.8418348631681,"lon":-58.8280463835778},"departamento":{"id":"18161","nombre":"San Roque"},"funcion":null,"id":"18161030","municipio":{"id":"180399","nombre":"9 de Julio"},"nombre":"9 de Julio","provincia":{"id":"18","nombre":"Corrientes"}},{"categoria":"Localidad simple","centroide":{"lat":-28.7505433489253,"lon":-58.6545368651224},"departamento":{"id":"18161","nombre":"San Roque"},"funcion":null,"id":"18161040","municipio":{"id":"180406","nombre":"Pedro R. Fernández"},"nombre":"Pedro R. Fernández","provincia":{"id":"18","nombre":"Corrientes"}},{"categoria":"Localidad simple","centroide":{"lat":-28.5732308799035,"lon":-58.7100567505645},"departamento":{"id":"18161","nombre":"San Roque"},"funcion":"CABECERA_DEPARTAMENTO","id":"18161050","municipio":{"id":"180420","nombre":"San Roque"},"nombre":"San Roque","provincia":{"id":"18","nombre":"Corrientes"}},{"categoria":"Localidad simple","centroide":{"lat":-28.2260143622167,"lon":-55.7844092003668},"departamento":{"id":"18168","nombre":"Santo Tomé"},"funcion":null,"id":"18168010","municipio":{"id":"180441","nombre":"Jose Rafael Gomez"},"nombre":"José Rafael Gómez","provincia":{"id":"18","nombre":"Corrientes"}},{"categoria":"Localidad simple","centroide":{"lat":-28.1729435857266,"lon":-55.6513324031087},"departamento":{"id":"18168","nombre":"Santo Tomé"},"funcion":null,"id":"18168020","municipio":{"id":"180427","nombre":"Garruchos"},"nombre":"Garruchos","provincia":{"id":"18","nombre":"Corrientes"}},{"categoria":"Localidad simple","centroide":{"lat":-28.0455566790186,"lon":-56.0190197167242},"departamento":{"id":"18168","nombre":"Santo Tomé"},"funcion":null,"id":"18168030","municipio":{"id":"180434","nombre":"Gobernador Ing. Valentín Virasoro"},"nombre":"Gobernador Igr. Valentín Virasoro","provincia":{"id":"18","nombre":"Corrientes"}},{"categoria":"Localidad simple","centroide":{"lat":-28.5511588178368,"lon":-56.0420862814163},"departamento":{"id":"18168","nombre":"Santo Tomé"},"funcion":"CABECERA_DEPARTAMENTO","id":"18168040","municipio":{"id":"180448","nombre":"Santo Tomé"},"nombre":"Santo Tomé","provincia":{"id":"18","nombre":"Corrientes"}},{"categoria":"Localidad simple","centroide":{"lat":-30.0867528651818,"lon":-58.7879617250662},"departamento":{"id":"18175","nombre":"Sauce"},"funcion":"CABECERA_DEPARTAMENTO","id":"18175010","municipio":{"id":"180455","nombre":"Sauce"},"nombre":"Sauce","provincia":{"id":"18","nombre":"Corrientes"}}],"parametros":{"max":600,"provincia":["18"]},"total":77}