{"cantidad":69,"inicio":0,"localidades_censales":[{"categoria":"Localidad simple","centroide":{"lat":-42.0119886969656,"lon":-65.3064500926092},"departamento":{"id":"26007","nombre":"Biedma"},"funcion":null,"id":"26007010","municipio":{"id":null,"nombre":null},"nombre":"Arroyo Verde","provincia":{"id":"26","nombre":"Chubut"}},{"categoria":"Localidad simple","centroide":{"lat":-42.7550996783449,"lon":-65.0422298178163},"departamento":{"id":"26007","nombre":"Biedma"},"funcion":"CABECERA_DEPARTAMENTO","id":"26007020","municipio":{"id":"260007","nombre":"Puerto Madryn"},"nombre":"Puerto Madryn","provincia":{"id":"26","nombre":"Chubut"}},{"categoria":"Localidad simple","centroide":{"lat":-42.5736171931039,"lon":-64.2836893467339},"departamento":{"id":"26007","nombre":"Biedma"},"funcion":null,"id":"26007030","municipio":{"id":null,"nombre":null},"nombre":"Puerto Pirámides","provincia":{"id":"26","nombre":"Chubut"}},{"categoria":"Localidad simple","centroide":{"lat":-42.8115900131439,"lon":-65.0514178038049},"departamento":{"id":"26007","nombre":"Biedma"},"funcion":null,"id":"26007040","municipio":{"id":"260007","nombre":"Puerto Madryn"},"nombre":"Quintas El Mirador","provincia":{"id":"26","nombre":"Chubut"}},{"categoria":"Localidad simple","centroide":{"lat":-42.6456158957863,"lon":-65.0647229672572},"departamento":{"id":"26007","nombre":"Biedma"},"funcion":null,"id":"26007050","municipio":{"id":"260007","nombre":"Puerto Madryn"},"nombre":"Reserva Area Protegida El Doradillo","provincia":{"id":"26","nombre":"Chubut"}},{"categoria":"Localidad simple","centroide":{"lat":-42.0687961260085,"lon":-71.2158343137726},"departamento":{"id":"26014","nombre":"Cushamen"},"funcion":null,"id":"26014010","municipio":{"id":"260028","nombre":"El Maitén"},"nombre":"Buenos Aires Chico","provincia":{"id":"26","nombre":"Chubut"}},{"categoria":"Localidad simple","centroide":{"lat":-42.5105313648355,"lon":-71.4351548288659},"departamento":{"id":"26014","nombre":"Cushamen"},"funcion":null,"id":"26014020","municipio":{"id":"260014","nombre":"Cholila"},"nombre":"Cholila","provincia":{"id":"26","nombre":"Chubut"}},{"categoria":"Localidad simple","centroide":{"lat":-42.601625583604,"lon":-70.4575737273538},"departamento":{"id":"26014","nombre":"Cushamen"},"funcion":null,"id":"26014025","municipio":{"id":null,"nombre":null},"nombre":"Costa del Chubut","provincia":{"id":"26","nombre":"Chubut"}},{"categoria":"Localidad simple","centroide":{"lat":-42.1766611028137,"lon":-70.662618842918},"departamento":{"id":"26014","nombre":"Cushamen"},"funcion":null,"id":"26014030","municipio":{"id":"268014","nombre":"Cushamen"},"nombre":"Cushamen Centro","provincia":{"id":"26","nombre":"Chubut"}},{"categoria":"Localidad simple","centroide":{"lat":-42.0679666637038,"lon":-71.5206708370903},"departamento":{"id":"26014","nombre":"Cushamen"},"funcion":null,"id":"26014040","municipio":{"id":"260021","nombre":"El Hoyo"},"nombre":"El Hoyo","provincia":{"id":"26","nombre":"Chubut"}},{"categoria":"Localidad simple","centroide":{"lat":-42.0542854358373,"lon":-71.1673153308386},"departamento":{"id":"26014","nombre":"Cushamen"},"funcion":null,"id":"26014050","municipio":{"id":"260028","nombre":"El Maitén"},"nombre":"El Maitén","provincia":{"id":"26","nombre":"Chubut"}},{"categoria":"Localidad simple","centroide":{"lat":-42.2329247123472,"lon":-71.3695066579513},"departamento":{"id":"26014","nombre":"Cushamen"},"funcion":null,"id":"26014060","municipio":{"id":"260035","nombre":"Epuyén"},"nombre":"Epuyén","provincia":{"id":"26","nombre":"Chubut"}},{"categoria":"Localidad simple","centroide":{"lat":-42.3910620005992,"lon":-70.5780784399414},"departamento":{"id":"26014","nombre":"Cushamen"},"funcion":null,"id":"26014065","municipio":{"id":null,"nombre":null},"nombre":"Fofo Cahuel","provincia":{"id":"26","nombre":"Chubut"}},{"categoria":"Localidad simple","centroide":{"lat":-42.7267578946733,"lon":-70.5354876126711},"departamento":{"id":"26014","nombre":"Cushamen"},"funcion":null,"id":"26014070","municipio":{"id":"265007","nombre":"Gualjaina"},"nombre":"Gualjaina","provincia":{"id":"26","nombre":"Chubut"}},{"categoria":"Localidad simple","centroide":{"lat":-42.2135356830147,"lon":-71.4296625433553},"departamento":{"id":"26014","nombre":"Cushamen"},"funcion":null,"id":"26014080","municipio":{"id":"260035","nombre":"Epuyén"},"nombre":"Lago Epuyén","provincia":{"id":"26","nombre":"Chubut"}},{"categoria":"Localidad simple","centroide":{"lat":-42.0672923130861,"lon":-71.5981575625236},"departamento":{"id":"26014","nombre":"Cushamen"},"funcion":null,"id":"26014090","municipio":{"id":"260042","nombre":"Lago Puelo"},"nombre":"Lago Puelo","provincia":{"id":"26","nombre":"Chubut"}},{"categoria":"Localidad simple","centroide":{"lat":-42.4288626216315,"lon":-71.0683951630343},"departamento":{"id":"26014","nombre":"Cushamen"},"funcion":"CABECERA_DEPARTAMENTO","id":"26014100","municipio":{"id":null,"nombre":null},"nombre":"Leleque","provincia":{"id":"26","nombre":"Chubut"}},{"categoria":"Localidad simple","centroide":{"lat":-45.7366075458208,"lon":-67.4852147282649},"departamento":{"id":"26021","nombre":"Escalante"},"funcion":null,"id":"26021010","municipio":{"id":"260049","nombre":"Comodoro Rivadavia"},"nombre":"Astra","provincia":{"id":"26","nombre":"Chubut"}},{"categoria":"Localidad simple","centroide":{"lat":-45.1143552826118,"lon":-66.5349166167103},"departamento":{"id":"26021","nombre":"Escalante"},"funcion":null,"id":"26021020","municipio":{"id":null,"nombre":null},"nombre":"Bahía Bustamante","provincia":{"id":"26","nombre":"Chubut"}},{"categoria":"Localidad simple","centroide":{"lat":-45.8759553727581,"lon":-67.5146622308804},"departamento":{"id":"26021","nombre":"Escalante"},"funcion":"CABECERA_DEPARTAMENTO","id":"26021030","municipio":{"id":"260049","nombre":"Comodoro Rivadavia"},"nombre":"Comodoro Rivadavia","provincia":{"id":"26","nombre":"Chubut"}},{"categoria":"Localidad simple","centroide":{"lat":-45.7906089158021,"lon":-67.6738925726169},"departamento":{"id":"26021","nombre":"Escalante"},"funcion":null,"id":"26021040","municipio":{"id":"260049","nombre":"Comodoro Rivadavia"},"nombre":"Diadema Argentina","provincia":{"id":"26","nombre":"Chubut"}},{"categoria":"Localidad simple","centroide":{"lat":-45.9368019185633,"lon":-67.5653960236573},"departamento":{"id":"26021","nombre":"Escalante"},"funcion":null,"id":"26021050","municipio":{"id":"260056","nombre":"Rada Tilly"},"nombre":"Rada Tilly","provincia":{"id":"26","nombre":"Chubut"}},{"categoria":"Localidad simple","centroide":{"lat":-44.79829087317,"lon":-65.710599293495},"departamento":{"id":"26028","nombre":"Florentino Ameghino"},"funcion":"CABECERA_DEPARTAMENTO","id":"26028010","municipio":{"id":"260063","nombre":"Camarones"},"nombre":"Camarones","provincia":{"id":"26","nombre":"Chubut"}},{"categoria":"Localidad simple","centroide":{"lat":-44.6795783728661,"lon":-66.6097364550235},"departamento":{"id":"26028","nombre":"Florentino Ameghino"},"funcion":null,"id":"26028020","municipio":{"id":null,"nombre":null},"nombre":"Garayalde","provincia":{"id":"26","nombre":"Chubut"}},{"categoria":"Localidad simple","centroide":{"lat":-43.1198187614025,"lon":-71.5588967458004},"departamento":{"id":"26035","nombre":"Futaleufú"},"funcion":null,"id":"26035010","municipio":{"id":"260084","nombre":"Trevelín"},"nombre":"Aldea Escolar (Los Rápidos)","provincia":{"id":"26","nombre":"Chubut"}},{"categoria":"Localidad simple","centroide":{"lat":-43.5380021657326,"lon":-71.4659616215841},"departamento":{"id":"26035","nombre":"Futaleufú"},"funcion":null,"id":"26035020","municipio":{"id":"260070","nombre":"Corcovado"},"nombre":"Corcovado","provincia":{"id":"26","nombre":"Chubut"}},{"categoria":"Localidad simple","centroide":{"lat":-42.9133238858291,"lon":-71.3185116319277},"departamento":{"id":"26035","nombre":"Futaleufú"},"funcion":"CABECERA_DEPARTAMENTO","id":"26035030","municipio":{"id":"260077","nombre":"Esquel"},"nombre":"Esquel","provincia":{"id":"26","nombre":"Chubut"}},{"categoria":"Localidad simple","centroide":{"lat":-43.2500168518713,"lon":-71.3512318442886},"departamento":{"id":"26035","nombre":"Futaleufú"},"funcion":null,"id":"26035040","municipio":{"id":"260084","nombre":"Trevelín"},"nombre":"Lago Rosario","provincia":{"id":"26","nombre":"Chubut"}},{"categoria":"Localidad simple","centroide":{"lat":-43.1847146210617,"lon":-71.6413919295155},"departamento":{"id":"26035","nombre":"Futaleufú"},"funcion":null,"id":"26035050","municipio":{"id":"260084","nombre":"Trevelín"},"nombre":"Los Cipreses","provincia":{"id":"26","nombre":"Chubut"}},{"categoria":"Localidad simple","centroide":{"lat":-43.0908711905976,"lon":-71.4654853699539},"departamento":{"id":"26035","nombre":"Futaleufú"},"funcion":null,"id":"26035060","municipio":{"id":"260084","nombre":"Trevelín"},"nombre":"Trevelín","provincia":{"id":"26","nombre":"Chubut"}},{"categoria":"Localidad simple","centroide":{"lat":-42.9006375858067,"lon":-71.6061535113716},"departamento":{"id":"26035","nombre":"Futaleufú"},"funcion":null,"id":"26035070","municipio":{"id":null,"nombre":null},"nombre":"Villa Futalaufquen","provincia":{"id":"26","nombre":"Chubut"}},{"categoria":"Localidad simple","centroide":{"lat":-43.7032847513538,"lon":-66.479400323535},"departamento":{"id":"26042","nombre":"Gaiman"},"funcion":null,"id":"26042010","municipio":{"id":"268028","nombre":"Dique Florentino Ameghino"},"nombre":"Dique Florentino Ameghino","provincia":{"id":"26","nombre":"Chubut"}},{"categoria":"Localidad simple","centroide":{"lat":-43.309297578868,"lon":-65.7087388385691},"departamento":{"id":"26042","nombre":"Gaiman"},"funcion":null,"id":"26042020","municipio":{"id":"260091","nombre":"Dolavon"},"nombre":"Dolavon","provincia":{"id":"26","nombre":"Chubut"}},{"categoria":"Localidad simple","centroide":{"lat":-43.288807480447,"lon":-65.4924135000744},"departamento":{"id":"26042","nombre":"Gaiman"},"funcion":"CABECERA_DEPARTAMENTO","id":"26042030","municipio":{"id":"260098","nombre":"Gaiman"},"nombre":"Gaiman","provincia":{"id":"26","nombre":"Chubut"}},{"categoria":"Localidad simple","centroide":{"lat":-43.3809771295585,"lon":-65.8386877428491},"departamento":{"id":"26042","nombre":"Gaiman"},"funcion":null,"id":"26042040","municipio":{"id":"265014","nombre":"28 de Julio"},"nombre":"28 de Julio","provincia":{"id":"26","nombre":"Chubut"}},{"categoria":"Localidad simple","centroide":{"lat":-42.5683892291525,"lon":-68.9190916237139},"departamento":{"id":"26049","nombre":"Gastre"},"funcion":null,"id":"26049010","municipio":{"id":null,"nombre":null},"nombre":"Blancuntre","provincia":{"id":"26","nombre":"Chubut"}},{"categoria":"Localidad simple","centroide":{"lat":-43.0980700419589,"lon":-68.5596033354947},"departamento":{"id":"26049","nombre":"Gastre"},"funcion":null,"id":"26049020","municipio":{"id":null,"nombre":null},"nombre":"El Escorial","provincia":{"id":"26","nombre":"Chubut"}},{"categoria":"Localidad simple","centroide":{"lat":-42.2656204565429,"lon":-69.2210978977662},"departamento":{"id":"26049","nombre":"Gastre"},"funcion":"CABECERA_DEPARTAMENTO","id":"26049030","municipio":{"id":"268035","nombre":"Gastre"},"nombre":"Gastre","provincia":{"id":"26","nombre":"Chubut"}},{"categoria":"Localidad simple","centroide":{"lat":-42.7167792838299,"lon":-69.1884723935703},"departamento":{"id":"26049","nombre":"Gastre"},"funcion":null,"id":"26049040","municipio":{"id":null,"nombre":null},"nombre":"Lagunita Salada","provincia":{"id":"26","nombre":"Chubut"}},{"categoria":"Localidad simple","centroide":{"lat":-42.7671354457615,"lon":-68.8754217944749},"departamento":{"id":"26049","nombre":"Gastre"},"funcion":null,"id":"26049050","municipio":{"id":null,"nombre":null},"nombre":"Yala Laubat","provincia":{"id":"26","nombre":"Chubut"}},{"categoria":"Localidad simple","centroide":{"lat":-43.2341165952859,"lon":-69.7112937770404},"departamento":{"id":"26056","nombre":"Languiñeo"},"funcion":null,"id":"26056010","municipio":{"id":null,"nombre":null},"nombre":"Aldea Epulef","provincia":{"id":"26","nombre":"Chubut"}},{"categoria":"Localidad simple","centroide":{"lat":-43.5856885437306,"lon":-71.7009020245021},"departamento":{"id":"26056","nombre":"Languiñeo"},"funcion":null,"id":"26056020","municipio":{"id":"268056","nombre":"Carrenleufú"},"nombre":"Carrenleufú","provincia":{"id":"26","nombre":"Chubut"}},{"categoria":"Localidad simple","centroide":{"lat":-43.2425977048335,"lon":-69.9302181856069},"departamento":{"id":"26056","nombre":"Languiñeo"},"funcion":null,"id":"26056030","municipio":{"id":"268063","nombre":"Colan Conhué"},"nombre":"Colan Conhué","provincia":{"id":"26","nombre":"Chubut"}},{"categoria":"Localidad simple","centroide":{"lat":-42.7371109950872,"lon":-69.6110020875554},"departamento":{"id":"26056","nombre":"Languiñeo"},"funcion":null,"id":"26056040","municipio":{"id":"268070","nombre":"Paso del Sapo"},"nombre":"Paso del Sapo","provincia":{"id":"26","nombre":"Chubut"}},{"categoria":"Localidad simple","centroide":{"lat":-43.4935820815258,"lon":-70.8135608321009},"departamento":{"id":"26056","nombre":"Languiñeo"},"funcion":"CABECERA_DEPARTAMENTO","id":"26056050","municipio":{"id":"260105","nombre":"Tecka"},"nombre":"Tecka","provincia":{"id":"26","nombre":"Chubut"}},{"categoria":"Localidad simple","centroide":{"lat":-43.285293271254,"lon":-67.7603113819649},"departamento":{"id":"26063","nombre":"Mártires"},"funcion":null,"id":"26063010","municipio":{"id":null,"nombre":null},"nombre":"El Mirasol","provincia":{"id":"26","nombre":"Chubut"}},{"categoria":"Localidad simple","centroide":{"lat":-43.7223979636171,"lon":-67.286995666614},"departamento":{"id":"26063","nombre":"Mártires"},"funcion":"CABECERA_DEPARTAMENTO","id":"26063020","municipio":{"id":"268077","nombre":"Las Plumas"},"nombre":"Las Plumas","provincia":{"id":"26","nombre":"Chubut"}},{"categoria":"Localidad simple","centroide":{"lat":-43.4233198653987,"lon":-69.1640923476749},"departamento":{"id":"26070","nombre":"Paso de Indios"},"funcion":null,"id":"26070010","municipio":{"id":null,"nombre":null},"nombre":"Cerro Cóndor","provincia":{"id":"26","nombre":"Chubut"}},{"categoria":"Localidad simple","centroide":{"lat":-43.8711929981581,"lon":-68.4301168776513},"departamento":{"id":"26070","nombre":"Paso de Indios"},"funcion":null,"id":"26070020","municipio":{"id":"268084","nombre":"Los Altares"},"nombre":"Los Altares","provincia":{"id":"26","nombre":"Chubut"}},{"categoria":"Localidad simple","centroide":{"lat":-43.8663054117658,"lon":-69.0448870902309},"departamento":{"id":"26070","nombre":"Paso de Indios"},"funcion":"CABECERA_DEPARTAMENTO","id":"26070030","municipio":{"id":"265021","nombre":"Paso de Indios"},"nombre":"Paso de Indios","provincia":{"id":"26","nombre":"Chubut"}},{"categoria":"Localidad simple","centroide":{"lat":-43.3821208618862,"lon":-65.0449325683673},"departamento":{"id":"26077","nombre":"Rawson"},"funcion":null,"id":"26077010","municipio":{"id":"260112","nombre":"Rawson"},"nombre":"Playa Magagna","provincia":{"id":"26","nombre":"Chubut"}},{"categoria":"Localidad simple","centroide":{"lat":-43.3219408530217,"lon":-65.0475987350976},"departamento":{"id":"26077","nombre":"Rawson"},"funcion":null,"id":"26077020","municipio":{"id":"260112","nombre":"Rawson"},"nombre":"Playa Unión","provincia":{"id":"26","nombre":"Chubut"}},{"categoria":"Localidad simple","centroide":{"lat":-43.3010516778944,"lon":-65.0955202340428},"departamento":{"id":"26077","nombre":"Rawson"},"funcion":"CAPITAL_PROVINCIA","id":"26077030","municipio":{"id":"260112","nombre":"Rawson"},"nombre":"Rawson","provincia":{"id":"26","nombre":"Chubut"}},{"categoria":"Localidad simple","centroide":{"lat":-43.2483538570309,"lon":-65.3103813319694},"departamento":{"id":"26077","nombre":"Rawson"},"funcion":null,"id":"26077040","municipio":{"id":"260119","nombre":"Trelew"},"nombre":"Trelew","provincia":{"id":"26","nombre":"Chubut"}},{"categoria":"Localidad simple","centroide":{"lat":-44.7052521139583,"lon":-70.8460010136593},"departamento":{"id":"26084","nombre":"Río Senguer"},"funcion":null,"id":"26084010","municipio":{"id":"260126","nombre":"Alto Río Senguer"},"nombre":"Aldea Apeleg","provincia":{"id":"26","nombre":"Chubut"}},{"categoria":"Localidad simple","centroide":{"lat":-45.5614644681207,"lon":-71.5181726162484},"departamento":{"id":"26084","nombre":"Río Senguer"},"funcion":null,"id":"26084020","municipio":{"id":"268091","nombre":"Aldea Beleiro"},"nombre":"Aldea Beleiro","provincia":{"id":"26","nombre":"Chubut"}},{"categoria":"Localidad simple","centroide":{"lat":-45.0476417520383,"lon":-70.8227552077123},"departamento":{"id":"26084","nombre":"Río Senguer"},"funcion":"CABECERA_DEPARTAMENTO","id":"26084030","municipio":{"id":"260126","nombre":"Alto Río Senguer"},"nombre":"Alto Río Senguer","provincia":{"id":"26","nombre":"Chubut"}},{"categoria":"Localidad simple","centroide":{"lat":-45.5870084306304,"lon":-71.0290968422414},"departamento":{"id":"26084","nombre":"Río Senguer"},"funcion":null,"id":"26084040","municipio":{"id":"268098","nombre":"Doctor Ricardo Rojas"},"nombre":"Doctor Ricardo Rojas","provincia":{"id":"26","nombre":"Chubut"}},{"categoria":"Localidad simple","centroide":{"lat":-45.3192710383686,"lon":-69.9721127349677},"departamento":{"id":"26084","nombre":"Río Senguer"},"funcion":null,"id":"26084050","municipio":{"id":"268105","nombre":"Facundo"},"nombre":"Facundo","provincia":{"id":"26","nombre":"Chubut"}},{"categoria":"Localidad simple","centroide":{"lat":-45.9468594190828,"lon":-71.2641106643113},"departamento":{"id":"26084","nombre":"Río Senguer"},"funcion":null,"id":"26084060","municipio":{"id":null,"nombre":null},"nombre":"Lago Blanco","provincia":{"id":"26","nombre":"Chubut"}},{"categoria":"Localidad simple","centroide":{"lat":-45.6964538171738,"lon":-70.2559804482546},"departamento":{"id":"26084","nombre":"Río Senguer"},"funcion":null,"id":"26084070","municipio":{"id":"260133","nombre":"Río Mayo"},"nombre":"Río Mayo","provincia":{"id":"26","nombre":"Chubut"}},{"categoria":"Localidad simple","centroide":{"lat":-45.0804225633305,"lon":-69.4497777721278},"departamento":{"id":"26091","nombre":"Sarmiento"},"funcion":null,"id":"26091010","municipio":{"id":"268119","nombre":"Buen Pasto"},"nombre":"Buen Pasto","provincia":{"id":"26","nombre":"Chubut"}},{"categoria":"Localidad simple","centroide":{"lat":-45.590519720018,"lon":-69.0706825167205},"departamento":{"id":"26091","nombre":"Sarmiento"},"funcion":"CABECERA_DEPARTAMENTO","id":"26091020","municipio":{"id":"260140","nombre":"Sarmiento"},"nombre":"Sarmiento","provincia":{"id":"26","nombre":"Chubut"}},{"categoria":"Localidad simple","centroide":{"lat":-44.1988556500986,"lon":-71.6666681641387},"departamento":{"id":"26098","nombre":"Tehuelches"},"funcion":null,"id":"26098010","municipio":{"id":"268147","nombre":"Dr. Atilio Oscar Viglione"},"nombre":"Doctor Oscar Atilio Viglione (Frontera de Río Pico)","provincia":{"id":"26","nombre":"Chubut"}},{"categoria":"Localidad simple","centroide":{"lat":-44.0529826063176,"lon":-70.597920256446},"departamento":{"id":"26098","nombre":"Tehuelches"},"funcion":null,"id":"26098020","municipio":{"id":"260147","nombre":"Gobernador Costa"},"nombre":"Gobernador Costa","provincia":{"id":"26","nombre":"Chubut"}},{"categoria":"Localidad simple","centroide":{"lat":-44.0545030861499,"lon":-70.4698423450265},"departamento":{"id":"26098","nombre":"Tehuelches"},"funcion":"CABECERA_DEPARTAMENTO","id":"26098030","municipio":{"id":"260154","nombre":"José de San Martín"},"nombre":"José de San Martín","provincia":{"id":"26","nombre":"Chubut"}},{"categoria":"Localidad simple","centroide":{"lat":-44.1829932413496,"lon":-71.3700565360866},"departamento":{"id":"26098","nombre":"Tehuelches"},"funcion":null,"id":"26098040","municipio":{"id":"260161","nombre":"Río Pico"},"nombre":"Río Pico","provincia":{"id":"26","nombre":"Chubut"}},{"categoria":"Localidad simple","centroide":{"lat":-42.5232330288476,"lon":-68.2828542288869},"departamento":{"id":"26105","nombre":"Telsen"},"funcion":null,"id":"26105010","municipio":{"id":"268126","nombre":"Gan Gan"},"nombre":"Gan Gan","provincia":{"id":"26","nombre":"Chubut"}},{"categoria":"Localidad simple","centroide":{"lat":-42.4387511614213,"lon":-66.941427996482},"departamento":{"id":"26105","nombre":"Telsen"},"funcion":"CABECERA_DEPARTAMENTO","id":"26105020","municipio":{"id":null,"nombre":null},"nombre":"Telsen","provincia":{"id":"26","nombre":"Chubut"}}],"parametros":{"max":600,"provincia":["26"]},"total":69}