{"cantidad":169,"inicio":0,"localidades_censales":[{"categoria":"Localidad simple","centroide":{"lat":-31.8673630759862,"lon":-58.445702857466},"departamento":{"id":"30008","nombre":"Colón"},"funcion":null,"id":"30008010","municipio":{"id":null,"nombre":null},"nombre":"Arroyo Barú","provincia":{"id":"30","nombre":"Entre Ríos"}},{"categoria":"Localidad simple","centroide":{"lat":-32.2232180852092,"lon":-58.1419674849484},"departamento":{"id":"30008","nombre":"Colón"},"funcion":"CABECERA_DEPARTAMENTO","id":"30008020","municipio":{"id":null,"nombre":null},"nombre":"Colón","provincia":{"id":"30","nombre":"Entre Ríos"}},{"categoria":"Localidad simple","centroide":{"lat":-32.2963657704418,"lon":-58.2329681221353},"departamento":{"id":"30008","nombre":"Colón"},"funcion":null,"id":"30008030","municipio":{"id":null,"nombre":null},"nombre":"Colonia Hugues","provincia":{"id":"30","nombre":"Entre Ríos"}},{"categoria":"Localidad simple","centroide":{"lat":-31.9629513486876,"lon":-58.5082059489741},"departamento":{"id":"30008","nombre":"Colón"},"funcion":null,"id":"30008040","municipio":{"id":null,"nombre":null},"nombre":"Hambis","provincia":{"id":"30","nombre":"Entre Ríos"}},{"categoria":"Localidad simple","centroide":{"lat":-32.0874958453901,"lon":-58.3417058444451},"departamento":{"id":"30008","nombre":"Colón"},"funcion":null,"id":"30008050","municipio":{"id":null,"nombre":null},"nombre":"Hocker","provincia":{"id":"30","nombre":"Entre Ríos"}},{"categoria":"Localidad simple","centroide":{"lat":-31.9771375050248,"lon":-58.3917628888627},"departamento":{"id":"30008","nombre":"Colón"},"funcion":null,"id":"30008060","municipio":{"id":null,"nombre":null},"nombre":"La Clarita","provincia":{"id":"30","nombre":"Entre Ríos"}},{"categoria":"Localidad simple","centroide":{"lat":-32.0030492517654,"lon":-58.4934832589352},"departamento":{"id":"30008","nombre":"Colón"},"funcion":null,"id":"30008070","municipio":{"id":null,"nombre":null},"nombre":"Pueblo Cazes","provincia":{"id":"30","nombre":"Entre Ríos"}},{"categoria":"Localidad simple","centroide":{"lat":-32.1570049045311,"lon":-58.1976616890773},"departamento":{"id":"30008","nombre":"Colón"},"funcion":null,"id":"30008080","municipio":{"id":null,"nombre":null},"nombre":"Pueblo Liebig's","provincia":{"id":"30","nombre":"Entre Ríos"}},{"categoria":"Localidad simple","centroide":{"lat":-32.2077198873635,"lon":-58.2187998664232},"departamento":{"id":"30008","nombre":"Colón"},"funcion":null,"id":"30008090","municipio":{"id":null,"nombre":null},"nombre":"San José","provincia":{"id":"30","nombre":"Entre Ríos"}},{"categoria":"Localidad simple","centroide":{"lat":-31.7925728023428,"lon":-58.3158517356},"departamento":{"id":"30008","nombre":"Colón"},"funcion":null,"id":"30008100","municipio":{"id":null,"nombre":null},"nombre":"Ubajay","provincia":{"id":"30","nombre":"Entre Ríos"}},{"categoria":"Localidad simple","centroide":{"lat":-32.1606202225925,"lon":-58.4037483450693},"departamento":{"id":"30008","nombre":"Colón"},"funcion":null,"id":"30008110","municipio":{"id":null,"nombre":null},"nombre":"Villa Elisa","provincia":{"id":"30","nombre":"Entre Ríos"}},{"categoria":"Localidad simple","centroide":{"lat":-31.507626297952,"lon":-58.1334346597166},"departamento":{"id":"30015","nombre":"Concordia"},"funcion":null,"id":"30015010","municipio":{"id":null,"nombre":null},"nombre":"Calabacilla","provincia":{"id":"30","nombre":"Entre Ríos"}},{"categoria":"Localidad simple","centroide":{"lat":-31.5794028169306,"lon":-58.1813678170213},"departamento":{"id":"30015","nombre":"Concordia"},"funcion":null,"id":"30015020","municipio":{"id":null,"nombre":null},"nombre":"Clodomiro Ledesma","provincia":{"id":"30","nombre":"Entre Ríos"}},{"categoria":"Localidad simple","centroide":{"lat":-31.2050901632153,"lon":-58.0338899223591},"departamento":{"id":"30015","nombre":"Concordia"},"funcion":null,"id":"30015030","municipio":{"id":null,"nombre":null},"nombre":"Colonia Ayuí","provincia":{"id":"30","nombre":"Entre Ríos"}},{"categoria":"Localidad simple","centroide":{"lat":-31.3244065210985,"lon":-58.1214096714805},"departamento":{"id":"30015","nombre":"Concordia"},"funcion":null,"id":"30015040","municipio":{"id":null,"nombre":null},"nombre":"Colonia General Roca","provincia":{"id":"30","nombre":"Entre Ríos"}},{"categoria":"Localidad simple","centroide":{"lat":-31.3881490852398,"lon":-58.016220398502},"departamento":{"id":"30015","nombre":"Concordia"},"funcion":"CABECERA_DEPARTAMENTO","id":"30015060","municipio":{"id":null,"nombre":null},"nombre":"Concordia","provincia":{"id":"30","nombre":"Entre Ríos"}},{"categoria":"Localidad simple","centroide":{"lat":-31.469433434517,"lon":-58.2636681024626},"departamento":{"id":"30015","nombre":"Concordia"},"funcion":null,"id":"30015080","municipio":{"id":null,"nombre":null},"nombre":"Estación Yeruá","provincia":{"id":"30","nombre":"Entre Ríos"}},{"categoria":"Localidad simple","centroide":{"lat":-31.3963812386954,"lon":-58.1611535438718},"departamento":{"id":"30015","nombre":"Concordia"},"funcion":null,"id":"30015083","municipio":{"id":null,"nombre":null},"nombre":"Estación Yuquerí","provincia":{"id":"30","nombre":"Entre Ríos"}},{"categoria":"Localidad simple","centroide":{"lat":-31.4400282680775,"lon":-58.1246631255854},"departamento":{"id":"30015","nombre":"Concordia"},"funcion":null,"id":"30015087","municipio":{"id":null,"nombre":null},"nombre":"Estancia Grande","provincia":{"id":"30","nombre":"Entre Ríos"}},{"categoria":"Localidad simple","centroide":{"lat":-31.2693712880357,"lon":-58.1060425422369},"departamento":{"id":"30015","nombre":"Concordia"},"funcion":null,"id":"30015090","municipio":{"id":null,"nombre":null},"nombre":"La Criolla","provincia":{"id":"30","nombre":"Entre Ríos"}},{"categoria":"Localidad simple","centroide":{"lat":-31.1707840748941,"lon":-58.1873842951633},"departamento":{"id":"30015","nombre":"Concordia"},"funcion":null,"id":"30015100","municipio":{"id":null,"nombre":null},"nombre":"Los Charrúas","provincia":{"id":"30","nombre":"Entre Ríos"}},{"categoria":"Localidad simple","centroide":{"lat":-31.6473163855612,"lon":-58.0158126069679},"departamento":{"id":"30015","nombre":"Concordia"},"funcion":null,"id":"30015110","municipio":{"id":null,"nombre":null},"nombre":"Nueva Escocia","provincia":{"id":"30","nombre":"Entre Ríos"}},{"categoria":"Localidad simple","centroide":{"lat":-31.3125067390797,"lon":-58.0586009432166},"departamento":{"id":"30015","nombre":"Concordia"},"funcion":null,"id":"30015120","municipio":{"id":null,"nombre":null},"nombre":"Osvaldo Magnasco","provincia":{"id":"30","nombre":"Entre Ríos"}},{"categoria":"Localidad simple","centroide":{"lat":-31.6714729659454,"lon":-58.2307912741944},"departamento":{"id":"30015","nombre":"Concordia"},"funcion":null,"id":"30015130","municipio":{"id":null,"nombre":null},"nombre":"Pedernal","provincia":{"id":"30","nombre":"Entre Ríos"}},{"categoria":"Localidad simple","centroide":{"lat":-31.530833509471,"lon":-58.0128947749058},"departamento":{"id":"30015","nombre":"Concordia"},"funcion":null,"id":"30015140","municipio":{"id":null,"nombre":null},"nombre":"Puerto Yeruá","provincia":{"id":"30","nombre":"Entre Ríos"}},{"categoria":"Localidad simple","centroide":{"lat":-31.8922864518526,"lon":-60.591797746941},"departamento":{"id":"30021","nombre":"Diamante"},"funcion":null,"id":"30021010","municipio":{"id":null,"nombre":null},"nombre":"Aldea Brasilera","provincia":{"id":"30","nombre":"Entre Ríos"}},{"categoria":"Localidad simple","centroide":{"lat":-31.9563723140333,"lon":-60.4961051979678},"departamento":{"id":"30021","nombre":"Diamante"},"funcion":null,"id":"30021015","municipio":{"id":null,"nombre":null},"nombre":"Aldea Grapschental","provincia":{"id":"30","nombre":"Entre Ríos"}},{"categoria":"Localidad simple","centroide":{"lat":-32.0308328904873,"lon":-60.5643359117847},"departamento":{"id":"30021","nombre":"Diamante"},"funcion":null,"id":"30021020","municipio":{"id":null,"nombre":null},"nombre":"Aldea Protestante","provincia":{"id":"30","nombre":"Entre Ríos"}},{"categoria":"Localidad simple","centroide":{"lat":-31.9260358583331,"lon":-60.5483852721123},"departamento":{"id":"30021","nombre":"Diamante"},"funcion":null,"id":"30021030","municipio":{"id":null,"nombre":null},"nombre":"Aldea Salto","provincia":{"id":"30","nombre":"Entre Ríos"}},{"categoria":"Localidad simple","centroide":{"lat":-31.9625681226479,"lon":-60.635713481626},"departamento":{"id":"30021","nombre":"Diamante"},"funcion":null,"id":"30021040","municipio":{"id":null,"nombre":null},"nombre":"Aldea San Francisco","provincia":{"id":"30","nombre":"Entre Ríos"}},{"categoria":"Localidad simple","centroide":{"lat":-31.9485292712546,"lon":-60.5803966416062},"departamento":{"id":"30021","nombre":"Diamante"},"funcion":null,"id":"30021050","municipio":{"id":null,"nombre":null},"nombre":"Aldea Spatzenkutter","provincia":{"id":"30","nombre":"Entre Ríos"}},{"categoria":"Localidad simple","centroide":{"lat":-31.9922440087904,"lon":-60.5878502274446},"departamento":{"id":"30021","nombre":"Diamante"},"funcion":null,"id":"30021060","municipio":{"id":null,"nombre":null},"nombre":"Aldea Valle María","provincia":{"id":"30","nombre":"Entre Ríos"}},{"categoria":"Localidad simple","centroide":{"lat":-31.8672572611199,"lon":-60.5752901869571},"departamento":{"id":"30021","nombre":"Diamante"},"funcion":null,"id":"30021070","municipio":{"id":null,"nombre":null},"nombre":"Colonia Ensayo","provincia":{"id":"30","nombre":"Entre Ríos"}},{"categoria":"Localidad simple","centroide":{"lat":-32.0694175722366,"lon":-60.6372200354527},"departamento":{"id":"30021","nombre":"Diamante"},"funcion":"CABECERA_DEPARTAMENTO","id":"30021080","municipio":{"id":null,"nombre":null},"nombre":"Diamante","provincia":{"id":"30","nombre":"Entre Ríos"}},{"categoria":"Localidad simple","centroide":{"lat":-32.1133207438253,"lon":-60.2299017967384},"departamento":{"id":"30021","nombre":"Diamante"},"funcion":null,"id":"30021090","municipio":{"id":null,"nombre":null},"nombre":"Estación Camps","provincia":{"id":"30","nombre":"Entre Ríos"}},{"categoria":"Localidad simple","centroide":{"lat":-31.9494541080354,"lon":-60.6779497259324},"departamento":{"id":"30021","nombre":"Diamante"},"funcion":null,"id":"30021100","municipio":{"id":null,"nombre":null},"nombre":"General Alvear","provincia":{"id":"30","nombre":"Entre Ríos"}},{"categoria":"Localidad simple","centroide":{"lat":-31.9840164487261,"lon":-60.4083912285494},"departamento":{"id":"30021","nombre":"Diamante"},"funcion":null,"id":"30021110","municipio":{"id":null,"nombre":null},"nombre":"General Racedo (El Carmen)","provincia":{"id":"30","nombre":"Entre Ríos"}},{"categoria":"Localidad simple","centroide":{"lat":-32.1772714430842,"lon":-60.1985605811767},"departamento":{"id":"30021","nombre":"Diamante"},"funcion":null,"id":"30021120","municipio":{"id":null,"nombre":null},"nombre":"General Ramírez","provincia":{"id":"30","nombre":"Entre Ríos"}},{"categoria":"Localidad simple","centroide":{"lat":-31.8753768018271,"lon":-60.649121973368},"departamento":{"id":"30021","nombre":"Diamante"},"funcion":null,"id":"30021123","municipio":{"id":null,"nombre":null},"nombre":"La Juanita","provincia":{"id":"30","nombre":"Entre Ríos"}},{"categoria":"Localidad simple","centroide":{"lat":-31.8327184836082,"lon":-60.6048471558247},"departamento":{"id":"30021","nombre":"Diamante"},"funcion":null,"id":"30021127","municipio":{"id":null,"nombre":null},"nombre":"Las Jaulas","provincia":{"id":"30","nombre":"Entre Ríos"}},{"categoria":"Localidad simple","centroide":{"lat":-31.917362571918,"lon":-60.653196880992},"departamento":{"id":"30021","nombre":"Diamante"},"funcion":null,"id":"30021130","municipio":{"id":null,"nombre":null},"nombre":"Paraje La Virgen","provincia":{"id":"30","nombre":"Entre Ríos"}},{"categoria":"Localidad simple","centroide":{"lat":-32.3342284848162,"lon":-60.4872902471305},"departamento":{"id":"30021","nombre":"Diamante"},"funcion":null,"id":"30021140","municipio":{"id":null,"nombre":null},"nombre":"Puerto Las Cuevas","provincia":{"id":"30","nombre":"Entre Ríos"}},{"categoria":"Localidad simple","centroide":{"lat":-32.0766327996549,"lon":-60.4638622644418},"departamento":{"id":"30021","nombre":"Diamante"},"funcion":null,"id":"30021150","municipio":{"id":null,"nombre":null},"nombre":"Villa Libertador San Martín","provincia":{"id":"30","nombre":"Entre Ríos"}},{"categoria":"Localidad simple","centroide":{"lat":-30.7540759107669,"lon":-57.9841625878637},"departamento":{"id":"30028","nombre":"Federación"},"funcion":null,"id":"30028010","municipio":{"id":null,"nombre":null},"nombre":"Chajarí","provincia":{"id":"30","nombre":"Entre Ríos"}},{"categoria":"Localidad simple","centroide":{"lat":-30.896158506292,"lon":-58.0221576342783},"departamento":{"id":"30028","nombre":"Federación"},"funcion":null,"id":"30028020","municipio":{"id":null,"nombre":null},"nombre":"Colonia Alemana","provincia":{"id":"30","nombre":"Entre Ríos"}},{"categoria":"Localidad simple","centroide":{"lat":-31.07279911644,"lon":-58.0258605026584},"departamento":{"id":"30028","nombre":"Federación"},"funcion":null,"id":"30028040","municipio":{"id":null,"nombre":null},"nombre":"Colonia La Argentina","provincia":{"id":"30","nombre":"Entre Ríos"}},{"categoria":"Localidad simple","centroide":{"lat":-30.7974915997552,"lon":-58.1756384659062},"departamento":{"id":"30028","nombre":"Federación"},"funcion":null,"id":"30028050","municipio":{"id":null,"nombre":null},"nombre":"Colonia Peña","provincia":{"id":"30","nombre":"Entre Ríos"}},{"categoria":"Localidad simple","centroide":{"lat":-30.990072444489,"lon":-57.9183475208406},"departamento":{"id":"30028","nombre":"Federación"},"funcion":"CABECERA_DEPARTAMENTO","id":"30028070","municipio":{"id":null,"nombre":null},"nombre":"Federación","provincia":{"id":"30","nombre":"Entre Ríos"}},{"categoria":"Localidad simple","centroide":{"lat":-30.5944074579969,"lon":-58.4682627057869},"departamento":{"id":"30028","nombre":"Federación"},"funcion":null,"id":"30028080","municipio":{"id":null,"nombre":null},"nombre":"Los Conquistadores","provincia":{"id":"30","nombre":"Entre Ríos"}},{"categoria":"Localidad simple","centroide":{"lat":-30.3396273493524,"lon":-58.3080915973688},"departamento":{"id":"30028","nombre":"Federación"},"funcion":null,"id":"30028090","municipio":{"id":null,"nombre":null},"nombre":"San Jaime de la Frontera","provincia":{"id":"30","nombre":"Entre Ríos"}},{"categoria":"Localidad simple","centroide":{"lat":-30.7571887237222,"lon":-58.0818713823153},"departamento":{"id":"30028","nombre":"Federación"},"funcion":null,"id":"30028100","municipio":{"id":null,"nombre":null},"nombre":"San Pedro","provincia":{"id":"30","nombre":"Entre Ríos"}},{"categoria":"Localidad simple","centroide":{"lat":-30.8091644325467,"lon":-58.2191269101013},"departamento":{"id":"30028","nombre":"Federación"},"funcion":null,"id":"30028105","municipio":{"id":null,"nombre":null},"nombre":"San Ramón","provincia":{"id":"30","nombre":"Entre Ríos"}},{"categoria":"Localidad simple","centroide":{"lat":-30.9004970305733,"lon":-57.9310809529514},"departamento":{"id":"30028","nombre":"Federación"},"funcion":null,"id":"30028110","municipio":{"id":null,"nombre":null},"nombre":"Santa Ana","provincia":{"id":"30","nombre":"Entre Ríos"}},{"categoria":"Localidad simple","centroide":{"lat":-30.7968318611671,"lon":-57.9115719165535},"departamento":{"id":"30028","nombre":"Federación"},"funcion":null,"id":"30028120","municipio":{"id":null,"nombre":null},"nombre":"Villa del Rosario","provincia":{"id":"30","nombre":"Entre Ríos"}},{"categoria":"Localidad simple","centroide":{"lat":-31.0477778936084,"lon":-59.0867391405808},"departamento":{"id":"30035","nombre":"Federal"},"funcion":null,"id":"30035010","municipio":{"id":null,"nombre":null},"nombre":"Conscripto Bernardi","provincia":{"id":"30","nombre":"Entre Ríos"}},{"categoria":"Localidad simple","centroide":{"lat":-30.9868629826869,"lon":-58.9777569104134},"departamento":{"id":"30035","nombre":"Federal"},"funcion":null,"id":"30035020","municipio":{"id":null,"nombre":null},"nombre":"Aldea San Isidro (El Cimarrón)","provincia":{"id":"30","nombre":"Entre Ríos"}},{"categoria":"Localidad simple","centroide":{"lat":-30.9513342178715,"lon":-58.7851418943148},"departamento":{"id":"30035","nombre":"Federal"},"funcion":"CABECERA_DEPARTAMENTO","id":"30035030","municipio":{"id":null,"nombre":null},"nombre":"Federal","provincia":{"id":"30","nombre":"Entre Ríos"}},{"categoria":"Localidad simple","centroide":{"lat":-30.9685149773302,"lon":-58.6127479285248},"departamento":{"id":"30035","nombre":"Federal"},"funcion":null,"id":"30035040","municipio":{"id":null,"nombre":null},"nombre":"Nueva Vizcaya","provincia":{"id":"30","nombre":"Entre Ríos"}},{"categoria":"Localidad simple","centroide":{"lat":-31.2384740579795,"lon":-59.2202829564802},"departamento":{"id":"30035","nombre":"Federal"},"funcion":null,"id":"30035050","municipio":{"id":null,"nombre":null},"nombre":"Sauce de Luna","provincia":{"id":"30","nombre":"Entre Ríos"}},{"categoria":"Localidad simple","centroide":{"lat":-30.3852713114912,"lon":-58.7515719602207},"departamento":{"id":"30042","nombre":"Feliciano"},"funcion":"CABECERA_DEPARTAMENTO","id":"30042010","municipio":{"id":null,"nombre":null},"nombre":"San José de Feliciano","provincia":{"id":"30","nombre":"Entre Ríos"}},{"categoria":"Localidad simple","centroide":{"lat":-30.4869283596556,"lon":-59.0316519541684},"departamento":{"id":"30042","nombre":"Feliciano"},"funcion":null,"id":"30042020","municipio":{"id":null,"nombre":null},"nombre":"San Víctor","provincia":{"id":"30","nombre":"Entre Ríos"}},{"categoria":"Localidad simple","centroide":{"lat":-32.825171529429,"lon":-59.2312379231861},"departamento":{"id":"30049","nombre":"Gualeguay"},"funcion":null,"id":"30049010","municipio":{"id":null,"nombre":null},"nombre":"Aldea Asunción","provincia":{"id":"30","nombre":"Entre Ríos"}},{"categoria":"Localidad simple","centroide":{"lat":-32.8718397608117,"lon":-59.4223491853546},"departamento":{"id":"30049","nombre":"Gualeguay"},"funcion":null,"id":"30049020","municipio":{"id":null,"nombre":null},"nombre":"Estación Lazo","provincia":{"id":"30","nombre":"Entre Ríos"}},{"categoria":"Localidad simple","centroide":{"lat":-32.7212713061818,"lon":-59.3958887031115},"departamento":{"id":"30049","nombre":"Gualeguay"},"funcion":null,"id":"30049030","municipio":{"id":null,"nombre":null},"nombre":"General Galarza","provincia":{"id":"30","nombre":"Entre Ríos"}},{"categoria":"Localidad simple","centroide":{"lat":-33.1485556234267,"lon":-59.3150160418816},"departamento":{"id":"30049","nombre":"Gualeguay"},"funcion":"CABECERA_DEPARTAMENTO","id":"30049040","municipio":{"id":null,"nombre":null},"nombre":"Gualeguay","provincia":{"id":"30","nombre":"Entre Ríos"}},{"categoria":"Localidad simple","centroide":{"lat":-33.2198401773573,"lon":-59.3630338659967},"departamento":{"id":"30049","nombre":"Gualeguay"},"funcion":null,"id":"30049050","municipio":{"id":null,"nombre":null},"nombre":"Puerto Ruiz","provincia":{"id":"30","nombre":"Entre Ríos"}},{"categoria":"Localidad simple","centroide":{"lat":-32.6253281653841,"lon":-58.703196864174},"departamento":{"id":"30056","nombre":"Gualeguaychú"},"funcion":null,"id":"30056010","municipio":{"id":null,"nombre":null},"nombre":"Aldea San Antonio","provincia":{"id":"30","nombre":"Entre Ríos"}},{"categoria":"Localidad simple","centroide":{"lat":-32.703788501225,"lon":-58.7790625010106},"departamento":{"id":"30056","nombre":"Gualeguaychú"},"funcion":null,"id":"30056020","municipio":{"id":null,"nombre":null},"nombre":"Aldea San Juan","provincia":{"id":"30","nombre":"Entre Ríos"}},{"categoria":"Localidad simple","centroide":{"lat":-33.1478483564668,"lon":-59.2089401138297},"departamento":{"id":"30056","nombre":"Gualeguaychú"},"funcion":null,"id":"30056030","municipio":{"id":null,"nombre":null},"nombre":"Enrique Carbó","provincia":{"id":"30","nombre":"Entre Ríos"}},{"categoria":"Localidad simple","centroide":{"lat":-32.5932358304352,"lon":-58.9037416509556},"departamento":{"id":"30056","nombre":"Gualeguaychú"},"funcion":null,"id":"30056035","municipio":{"id":null,"nombre":null},"nombre":"Estación Escriña","provincia":{"id":"30","nombre":"Entre Ríos"}},{"categoria":"Localidad simple","centroide":{"lat":-32.8044314283598,"lon":-58.8826333992369},"departamento":{"id":"30056","nombre":"Gualeguaychú"},"funcion":null,"id":"30056040","municipio":{"id":null,"nombre":null},"nombre":"Faustino M. Parera","provincia":{"id":"30","nombre":"Entre Ríos"}},{"categoria":"Localidad simple","centroide":{"lat":-32.8376334754538,"lon":-58.8038160467091},"departamento":{"id":"30056","nombre":"Gualeguaychú"},"funcion":null,"id":"30056050","municipio":{"id":null,"nombre":null},"nombre":"General Almada","provincia":{"id":"30","nombre":"Entre Ríos"}},{"categoria":"Localidad simple","centroide":{"lat":-32.5306030521064,"lon":-58.9339533000982},"departamento":{"id":"30056","nombre":"Gualeguaychú"},"funcion":null,"id":"30056060","municipio":{"id":null,"nombre":null},"nombre":"Gilbert","provincia":{"id":"30","nombre":"Entre Ríos"}},{"categoria":"Componente de localidad compuesta","centroide":{"lat":-33.0100328267382,"lon":-58.5164257946351},"departamento":{"id":"30056","nombre":"Gualeguaychú"},"funcion":"CABECERA_DEPARTAMENTO","id":"30056070","municipio":{"id":null,"nombre":null},"nombre":"Gualeguaychú","provincia":{"id":"30","nombre":"Entre Ríos"}},{"categoria":"Localidad simple","centroide":{"lat":-32.9269373297111,"lon":-58.9534834763678},"departamento":{"id":"30056","nombre":"Gualeguaychú"},"funcion":null,"id":"30056080","municipio":{"id":null,"nombre":null},"nombre":"Irazusta","provincia":{"id":"30","nombre":"Entre Ríos"}},{"categoria":"Localidad simple","centroide":{"lat":-33.0354242763647,"lon":-59.001853656082},"departamento":{"id":"30056","nombre":"Gualeguaychú"},"funcion":null,"id":"30056090","municipio":{"id":null,"nombre":null},"nombre":"Larroque","provincia":{"id":"30","nombre":"Entre Ríos"}},{"categoria":"Localidad simple","centroide":{"lat":-32.7697426128614,"lon":-58.9070200410514},"departamento":{"id":"30056","nombre":"Gualeguaychú"},"funcion":null,"id":"30056095","municipio":{"id":null,"nombre":null},"nombre":"Pastor Britos","provincia":{"id":"30","nombre":"Entre Ríos"}},{"categoria":"Componente de localidad compuesta","centroide":{"lat":-33.0162888459347,"lon":-58.476043760345},"departamento":{"id":"30056","nombre":"Gualeguaychú"},"funcion":null,"id":"30056100","municipio":{"id":null,"nombre":null},"nombre":"Pueblo General Belgrano","provincia":{"id":"30","nombre":"Entre Ríos"}},{"categoria":"Localidad simple","centroide":{"lat":-32.6881311554333,"lon":-58.888994553976},"departamento":{"id":"30056","nombre":"Gualeguaychú"},"funcion":null,"id":"30056110","municipio":{"id":null,"nombre":null},"nombre":"Urdinarrain","provincia":{"id":"30","nombre":"Entre Ríos"}},{"categoria":"Localidad simple","centroide":{"lat":-33.4994124052794,"lon":-58.8003541709834},"departamento":{"id":"30063","nombre":"Islas del Ibicuy"},"funcion":null,"id":"30063020","municipio":{"id":null,"nombre":null},"nombre":"Ceibas","provincia":{"id":"30","nombre":"Entre Ríos"}},{"categoria":"Localidad simple","centroide":{"lat":-33.7434364754781,"lon":-59.1552234337056},"departamento":{"id":"30063","nombre":"Islas del Ibicuy"},"funcion":null,"id":"30063030","municipio":{"id":null,"nombre":null},"nombre":"Ibicuy","provincia":{"id":"30","nombre":"Entre Ríos"}},{"categoria":"Localidad simple","centroide":{"lat":-33.4360995740998,"lon":-59.0675952112197},"departamento":{"id":"30063","nombre":"Islas del Ibicuy"},"funcion":null,"id":"30063040","municipio":{"id":null,"nombre":null},"nombre":"Médanos","provincia":{"id":"30","nombre":"Entre Ríos"}},{"categoria":"Localidad simple","centroide":{"lat":-33.7156244223002,"lon":-58.6597631447303},"departamento":{"id":"30063","nombre":"Islas del Ibicuy"},"funcion":"CABECERA_DEPARTAMENTO","id":"30063060","municipio":{"id":null,"nombre":null},"nombre":"Villa Paranacito","provincia":{"id":"30","nombre":"Entre Ríos"}},{"categoria":"Localidad simple","centroide":{"lat":-31.4565889671918,"lon":-59.5991388684545},"departamento":{"id":"30070","nombre":"La Paz"},"funcion":null,"id":"30070005","municipio":{"id":null,"nombre":null},"nombre":"Alcaraz","provincia":{"id":"30","nombre":"Entre Ríos"}},{"categoria":"Localidad simple","centroide":{"lat":-31.3428914409424,"lon":-59.4467309737899},"departamento":{"id":"30070","nombre":"La Paz"},"funcion":null,"id":"30070010","municipio":{"id":null,"nombre":null},"nombre":"Bovril","provincia":{"id":"30","nombre":"Entre Ríos"}},{"categoria":"Localidad simple","centroide":{"lat":-31.1853384671792,"lon":-59.4079822910182},"departamento":{"id":"30070","nombre":"La Paz"},"funcion":null,"id":"30070020","municipio":{"id":null,"nombre":null},"nombre":"Colonia Avigdor","provincia":{"id":"30","nombre":"Entre Ríos"}},{"categoria":"Localidad simple","centroide":{"lat":-31.1810124666205,"lon":-59.7328844569416},"departamento":{"id":"30070","nombre":"La Paz"},"funcion":null,"id":"30070030","municipio":{"id":null,"nombre":null},"nombre":"El Solar","provincia":{"id":"30","nombre":"Entre Ríos"}},{"categoria":"Localidad simple","centroide":{"lat":-30.741541104376,"lon":-59.6433535241896},"departamento":{"id":"30070","nombre":"La Paz"},"funcion":"CABECERA_DEPARTAMENTO","id":"30070040","municipio":{"id":null,"nombre":null},"nombre":"La Paz","provincia":{"id":"30","nombre":"Entre Ríos"}},{"categoria":"Localidad simple","centroide":{"lat":-31.1859575955508,"lon":-59.9521591252044},"departamento":{"id":"30070","nombre":"La Paz"},"funcion":null,"id":"30070050","municipio":{"id":null,"nombre":null},"nombre":"Piedras Blancas","provincia":{"id":"30","nombre":"Entre Ríos"}},{"categoria":"Localidad simple","centroide":{"lat":-30.6905067150943,"lon":-59.3994540133514},"departamento":{"id":"30070","nombre":"La Paz"},"funcion":null,"id":"30070070","municipio":{"id":null,"nombre":null},"nombre":"San Gustavo","provincia":{"id":"30","nombre":"Entre Ríos"}},{"categoria":"Localidad simple","centroide":{"lat":-30.9466589584952,"lon":-59.7882850384119},"departamento":{"id":"30070","nombre":"La Paz"},"funcion":null,"id":"30070080","municipio":{"id":null,"nombre":null},"nombre":"Santa Elena","provincia":{"id":"30","nombre":"Entre Ríos"}},{"categoria":"Localidad simple","centroide":{"lat":-31.3896679471814,"lon":-59.5032123815164},"departamento":{"id":"30070","nombre":"La Paz"},"funcion":null,"id":"30070090","municipio":{"id":null,"nombre":null},"nombre":"Sir Leonard","provincia":{"id":"30","nombre":"Entre Ríos"}},{"categoria":"Localidad simple","centroide":{"lat":-32.2443130059944,"lon":-60.1627988186884},"departamento":{"id":"30077","nombre":"Nogoyá"},"funcion":null,"id":"30077010","municipio":{"id":null,"nombre":null},"nombre":"Aranguren","provincia":{"id":"30","nombre":"Entre Ríos"}},{"categoria":"Localidad simple","centroide":{"lat":-32.374100868006,"lon":-59.9380818002549},"departamento":{"id":"30077","nombre":"Nogoyá"},"funcion":null,"id":"30077020","municipio":{"id":null,"nombre":null},"nombre":"Betbeder","provincia":{"id":"30","nombre":"Entre Ríos"}},{"categoria":"Localidad simple","centroide":{"lat":-32.0752594049271,"lon":-59.9943230195983},"departamento":{"id":"30077","nombre":"Nogoyá"},"funcion":null,"id":"30077030","municipio":{"id":null,"nombre":null},"nombre":"Don Cristóbal","provincia":{"id":"30","nombre":"Entre Ríos"}},{"categoria":"Localidad simple","centroide":{"lat":-32.4774515995652,"lon":-59.9217117300676},"departamento":{"id":"30077","nombre":"Nogoyá"},"funcion":null,"id":"30077040","municipio":{"id":null,"nombre":null},"nombre":"Febré","provincia":{"id":"30","nombre":"Entre Ríos"}},{"categoria":"Localidad simple","centroide":{"lat":-32.3380692970598,"lon":-60.0301404781048},"departamento":{"id":"30077","nombre":"Nogoyá"},"funcion":null,"id":"30077050","municipio":{"id":null,"nombre":null},"nombre":"Hernández","provincia":{"id":"30","nombre":"Entre Ríos"}},{"categoria":"Localidad simple","centroide":{"lat":-32.3859289481651,"lon":-59.531300464703},"departamento":{"id":"30077","nombre":"Nogoyá"},"funcion":null,"id":"30077060","municipio":{"id":null,"nombre":null},"nombre":"Lucas González","provincia":{"id":"30","nombre":"Entre Ríos"}},{"categoria":"Localidad simple","centroide":{"lat":-32.3956416421841,"lon":-59.7880764157544},"departamento":{"id":"30077","nombre":"Nogoyá"},"funcion":"CABECERA_DEPARTAMENTO","id":"30077070","municipio":{"id":null,"nombre":null},"nombre":"Nogoyá","provincia":{"id":"30","nombre":"Entre Ríos"}},{"categoria":"Localidad simple","centroide":{"lat":-32.3866241398752,"lon":-59.6630736582896},"departamento":{"id":"30077","nombre":"Nogoyá"},"funcion":null,"id":"30077080","municipio":{"id":null,"nombre":null},"nombre":"XX de Setiembre","provincia":{"id":"30","nombre":"Entre Ríos"}},{"categoria":"Localidad simple","centroide":{"lat":-31.8847292300203,"lon":-60.4087456869806},"departamento":{"id":"30084","nombre":"Paraná"},"funcion":null,"id":"30084010","municipio":{"id":null,"nombre":null},"nombre":"Aldea María Luisa","provincia":{"id":"30","nombre":"Entre Ríos"}},{"categoria":"Localidad simple","centroide":{"lat":-31.9982237404715,"lon":-60.3583819889242},"departamento":{"id":"30084","nombre":"Paraná"},"funcion":null,"id":"30084015","municipio":{"id":null,"nombre":null},"nombre":"Aldea San Juan","provincia":{"id":"30","nombre":"Entre Ríos"}},{"categoria":"Localidad simple","centroide":{"lat":-31.9598299451355,"lon":-60.2558755485286},"departamento":{"id":"30084","nombre":"Paraná"},"funcion":null,"id":"30084020","municipio":{"id":null,"nombre":null},"nombre":"Aldea San Rafael","provincia":{"id":"30","nombre":"Entre Ríos"}},{"categoria":"Localidad simple","centroide":{"lat":-31.6128701885629,"lon":-60.0070721806963},"departamento":{"id":"30084","nombre":"Paraná"},"funcion":null,"id":"30084030","municipio":{"id":null,"nombre":null},"nombre":"Aldea Santa María","provincia":{"id":"30","nombre":"Entre Ríos"}},{"categoria":"Localidad simple","centroide":{"lat":-32.0164544602725,"lon":-60.2411073474122},"departamento":{"id":"30084","nombre":"Paraná"},"funcion":null,"id":"30084040","municipio":{"id":null,"nombre":null},"nombre":"Aldea Santa Rosa","provincia":{"id":"30","nombre":"Entre Ríos"}},{"categoria":"Localidad simple","centroide":{"lat":-31.5824984189512,"lon":-60.0770650212996},"departamento":{"id":"30084","nombre":"Paraná"},"funcion":null,"id":"30084050","municipio":{"id":null,"nombre":null},"nombre":"Cerrito","provincia":{"id":"30","nombre":"Entre Ríos"}},{"categoria":"Componente de localidad compuesta","centroide":{"lat":-31.7680690511493,"lon":-60.4050220629258},"departamento":{"id":"30084","nombre":"Paraná"},"funcion":null,"id":"30084060","municipio":{"id":null,"nombre":null},"nombre":"Colonia Avellaneda","provincia":{"id":"30","nombre":"Entre Ríos"}},{"categoria":"Localidad simple","centroide":{"lat":-31.6777727008412,"lon":-60.2436880885317},"departamento":{"id":"30084","nombre":"Paraná"},"funcion":null,"id":"30084065","municipio":{"id":null,"nombre":null},"nombre":"Colonia Crespo","provincia":{"id":"30","nombre":"Entre Ríos"}},{"categoria":"Localidad simple","centroide":{"lat":-32.0346491846505,"lon":-60.3107514290928},"departamento":{"id":"30084","nombre":"Paraná"},"funcion":null,"id":"30084070","municipio":{"id":null,"nombre":null},"nombre":"Crespo","provincia":{"id":"30","nombre":"Entre Ríos"}},{"categoria":"Localidad simple","centroide":{"lat":-31.6625748086746,"lon":-60.1751144821057},"departamento":{"id":"30084","nombre":"Paraná"},"funcion":null,"id":"30084080","municipio":{"id":null,"nombre":null},"nombre":"El Palenque","provincia":{"id":"30","nombre":"Entre Ríos"}},{"categoria":"Localidad simple","centroide":{"lat":-31.5838497016925,"lon":-59.8938069366258},"departamento":{"id":"30084","nombre":"Paraná"},"funcion":null,"id":"30084090","municipio":{"id":null,"nombre":null},"nombre":"El Pingo","provincia":{"id":"30","nombre":"Entre Ríos"}},{"categoria":"Localidad simple","centroide":{"lat":-31.8480473768248,"lon":-60.0927487719843},"departamento":{"id":"30084","nombre":"Paraná"},"funcion":null,"id":"30084095","municipio":{"id":null,"nombre":null},"nombre":"El Ramblón","provincia":{"id":"30","nombre":"Entre Ríos"}},{"categoria":"Localidad simple","centroide":{"lat":-31.5133052410614,"lon":-59.83696962349},"departamento":{"id":"30084","nombre":"Paraná"},"funcion":null,"id":"30084100","municipio":{"id":null,"nombre":null},"nombre":"Hasenkamp","provincia":{"id":"30","nombre":"Entre Ríos"}},{"categoria":"Localidad simple","centroide":{"lat":-31.2324500702018,"lon":-59.9872576438234},"departamento":{"id":"30084","nombre":"Paraná"},"funcion":null,"id":"30084110","municipio":{"id":null,"nombre":null},"nombre":"Hernandarias","provincia":{"id":"30","nombre":"Entre Ríos"}},{"categoria":"Localidad simple","centroide":{"lat":-31.7267100818149,"lon":-60.2971793004448},"departamento":{"id":"30084","nombre":"Paraná"},"funcion":null,"id":"30084120","municipio":{"id":null,"nombre":null},"nombre":"La Picada","provincia":{"id":"30","nombre":"Entre Ríos"}},{"categoria":"Localidad simple","centroide":{"lat":-31.8706095724666,"lon":-59.7324361083485},"departamento":{"id":"30084","nombre":"Paraná"},"funcion":null,"id":"30084130","municipio":{"id":null,"nombre":null},"nombre":"Las Tunas","provincia":{"id":"30","nombre":"Entre Ríos"}},{"categoria":"Localidad simple","centroide":{"lat":-31.6660715037636,"lon":-59.9044379252459},"departamento":{"id":"30084","nombre":"Paraná"},"funcion":null,"id":"30084140","municipio":{"id":null,"nombre":null},"nombre":"María Grande","provincia":{"id":"30","nombre":"Entre Ríos"}},{"categoria":"Componente de localidad compuesta","centroide":{"lat":-31.8257355466309,"lon":-60.5182728163031},"departamento":{"id":"30084","nombre":"Paraná"},"funcion":null,"id":"30084150","municipio":{"id":null,"nombre":null},"nombre":"Oro Verde","provincia":{"id":"30","nombre":"Entre Ríos"}},{"categoria":"Componente de localidad compuesta","centroide":{"lat":-31.7415676426411,"lon":-60.5284145917588},"departamento":{"id":"30084","nombre":"Paraná"},"funcion":"CAPITAL_PROVINCIA","id":"30084160","municipio":{"id":null,"nombre":null},"nombre":"Paraná","provincia":{"id":"30","nombre":"Entre Ríos"}},{"categoria":"Localidad simple","centroide":{"lat":-31.4287140394702,"lon":-59.7457885927193},"departamento":{"id":"30084","nombre":"Paraná"},"funcion":null,"id":"30084170","municipio":{"id":null,"nombre":null},"nombre":"Pueblo Bellocq (Las Garzas)","provincia":{"id":"30","nombre":"Entre Ríos"}},{"categoria":"Localidad simple","centroide":{"lat":-31.3883015926493,"lon":-60.0938334043815},"departamento":{"id":"30084","nombre":"Paraná"},"funcion":null,"id":"30084180","municipio":{"id":null,"nombre":null},"nombre":"Pueblo Brugo","provincia":{"id":"30","nombre":"Entre Ríos"}},{"categoria":"Localidad simple","centroide":{"lat":-31.4636064114686,"lon":-60.1679618601982},"departamento":{"id":"30084","nombre":"Paraná"},"funcion":null,"id":"30084190","municipio":{"id":null,"nombre":null},"nombre":"Pueblo General San Martín","provincia":{"id":"30","nombre":"Entre Ríos"}},{"categoria":"Componente de localidad compuesta","centroide":{"lat":-31.7815218098022,"lon":-60.4419739913356},"departamento":{"id":"30084","nombre":"Paraná"},"funcion":null,"id":"30084200","municipio":{"id":null,"nombre":null},"nombre":"San Benito","provincia":{"id":"30","nombre":"Entre Ríos"}},{"categoria":"Componente de localidad compuesta","centroide":{"lat":-31.7463194997657,"lon":-60.3552297078863},"departamento":{"id":"30084","nombre":"Paraná"},"funcion":null,"id":"30084210","municipio":{"id":null,"nombre":null},"nombre":"Sauce Montrull","provincia":{"id":"30","nombre":"Entre Ríos"}},{"categoria":"Localidad simple","centroide":{"lat":-31.8442990730164,"lon":-60.3747483050584},"departamento":{"id":"30084","nombre":"Paraná"},"funcion":null,"id":"30084220","municipio":{"id":null,"nombre":null},"nombre":"Sauce Pinto","provincia":{"id":"30","nombre":"Entre Ríos"}},{"categoria":"Localidad simple","centroide":{"lat":-31.9588750821276,"lon":-60.1269829104478},"departamento":{"id":"30084","nombre":"Paraná"},"funcion":null,"id":"30084230","municipio":{"id":null,"nombre":null},"nombre":"Seguí","provincia":{"id":"30","nombre":"Entre Ríos"}},{"categoria":"Localidad simple","centroide":{"lat":-31.7385742726697,"lon":-59.9115081436489},"departamento":{"id":"30084","nombre":"Paraná"},"funcion":null,"id":"30084240","municipio":{"id":null,"nombre":null},"nombre":"Sosa","provincia":{"id":"30","nombre":"Entre Ríos"}},{"categoria":"Localidad simple","centroide":{"lat":-31.8047077554997,"lon":-59.9379151601641},"departamento":{"id":"30084","nombre":"Paraná"},"funcion":null,"id":"30084250","municipio":{"id":null,"nombre":null},"nombre":"Tabossi","provincia":{"id":"30","nombre":"Entre Ríos"}},{"categoria":"Localidad simple","centroide":{"lat":-31.8735456198918,"lon":-60.4970235321194},"departamento":{"id":"30084","nombre":"Paraná"},"funcion":null,"id":"30084260","municipio":{"id":null,"nombre":null},"nombre":"Tezanos Pinto","provincia":{"id":"30","nombre":"Entre Ríos"}},{"categoria":"Localidad simple","centroide":{"lat":-31.8714330822777,"lon":-60.0099225269048},"departamento":{"id":"30084","nombre":"Paraná"},"funcion":null,"id":"30084270","municipio":{"id":null,"nombre":null},"nombre":"Viale","provincia":{"id":"30","nombre":"Entre Ríos"}},{"categoria":"Localidad simple","centroide":{"lat":-31.908647496665,"lon":-60.468352081106},"departamento":{"id":"30084","nombre":"Paraná"},"funcion":null,"id":"30084280","municipio":{"id":null,"nombre":null},"nombre":"Villa Fontana","provincia":{"id":"30","nombre":"Entre Ríos"}},{"categoria":"Localidad simple","centroide":{"lat":-31.93428563973,"lon":-60.427973773299},"departamento":{"id":"30084","nombre":"Paraná"},"funcion":null,"id":"30084290","municipio":{"id":null,"nombre":null},"nombre":"Villa Gdor. Luis F. Etchevehere","provincia":{"id":"30","nombre":"Entre Ríos"}},{"categoria":"Localidad simple","centroide":{"lat":-31.6507506100701,"lon":-60.3775855159669},"departamento":{"id":"30084","nombre":"Paraná"},"funcion":null,"id":"30084300","municipio":{"id":null,"nombre":null},"nombre":"Villa Urquiza","provincia":{"id":"30","nombre":"Entre Ríos"}},{"categoria":"Localidad simple","centroide":{"lat":-31.5246078338723,"lon":-58.4047735134447},"departamento":{"id":"30088","nombre":"San Salvador"},"funcion":null,"id":"30088010","municipio":{"id":null,"nombre":null},"nombre":"General Campos","provincia":{"id":"30","nombre":"Entre Ríos"}},{"categoria":"Localidad simple","centroide":{"lat":-31.6255225523021,"lon":-58.5040738167895},"departamento":{"id":"30088","nombre":"San Salvador"},"funcion":"CABECERA_DEPARTAMENTO","id":"30088020","municipio":{"id":null,"nombre":null},"nombre":"San Salvador","provincia":{"id":"30","nombre":"Entre Ríos"}},{"categoria":"Localidad simple","centroide":{"lat":-32.0888342815838,"lon":-59.1740705545307},"departamento":{"id":"30091","nombre":"Tala"},"funcion":null,"id":"30091010","municipio":{"id":null,"nombre":null},"nombre":"Altamirano Sur","provincia":{"id":"30","nombre":"Entre Ríos"}},{"categoria":"Localidad simple","centroide":{"lat":-31.9865854200416,"lon":-59.2804623070461},"departamento":{"id":"30091","nombre":"Tala"},"funcion":null,"id":"30091020","municipio":{"id":null,"nombre":null},"nombre":"Durazno","provincia":{"id":"30","nombre":"Entre Ríos"}},{"categoria":"Localidad simple","centroide":{"lat":-32.6338905298532,"lon":-59.4016108911944},"departamento":{"id":"30091","nombre":"Tala"},"funcion":null,"id":"30091030","municipio":{"id":null,"nombre":null},"nombre":"Estación Arroyo Clé","provincia":{"id":"30","nombre":"Entre Ríos"}},{"categoria":"Localidad simple","centroide":{"lat":-32.3933701328502,"lon":-59.2758886814116},"departamento":{"id":"30091","nombre":"Tala"},"funcion":null,"id":"30091040","municipio":{"id":null,"nombre":null},"nombre":"Gobernador Echagüe","provincia":{"id":"30","nombre":"Entre Ríos"}},{"categoria":"Localidad simple","centroide":{"lat":-32.5464913620505,"lon":-59.3561472624329},"departamento":{"id":"30091","nombre":"Tala"},"funcion":null,"id":"30091050","municipio":{"id":null,"nombre":null},"nombre":"Gobernador Mansilla","provincia":{"id":"30","nombre":"Entre Ríos"}},{"categoria":"Localidad simple","centroide":{"lat":-32.3372059083888,"lon":-59.3710906213647},"departamento":{"id":"30091","nombre":"Tala"},"funcion":null,"id":"30091060","municipio":{"id":null,"nombre":null},"nombre":"Gobernador Solá","provincia":{"id":"30","nombre":"Entre Ríos"}},{"categoria":"Localidad simple","centroide":{"lat":-32.0826358698135,"lon":-59.3082772238093},"departamento":{"id":"30091","nombre":"Tala"},"funcion":null,"id":"30091070","municipio":{"id":null,"nombre":null},"nombre":"Guardamonte","provincia":{"id":"30","nombre":"Entre Ríos"}},{"categoria":"Localidad simple","centroide":{"lat":-32.4700075443165,"lon":-59.1726625031425},"departamento":{"id":"30091","nombre":"Tala"},"funcion":null,"id":"30091080","municipio":{"id":null,"nombre":null},"nombre":"Las Guachas","provincia":{"id":"30","nombre":"Entre Ríos"}},{"categoria":"Localidad simple","centroide":{"lat":-32.1724413881098,"lon":-59.3986787086128},"departamento":{"id":"30091","nombre":"Tala"},"funcion":null,"id":"30091090","municipio":{"id":null,"nombre":null},"nombre":"Maciá","provincia":{"id":"30","nombre":"Entre Ríos"}},{"categoria":"Localidad simple","centroide":{"lat":-32.3026339163322,"lon":-59.1445792095518},"departamento":{"id":"30091","nombre":"Tala"},"funcion":"CABECERA_DEPARTAMENTO","id":"30091100","municipio":{"id":null,"nombre":null},"nombre":"Rosario del Tala","provincia":{"id":"30","nombre":"Entre Ríos"}},{"categoria":"Localidad simple","centroide":{"lat":-32.3725729351065,"lon":-58.8785609437917},"departamento":{"id":"30098","nombre":"Uruguay"},"funcion":null,"id":"30098010","municipio":{"id":null,"nombre":null},"nombre":"Basavilbaso","provincia":{"id":"30","nombre":"Entre Ríos"}},{"categoria":"Localidad simple","centroide":{"lat":-32.4642772562474,"lon":-58.4780718727048},"departamento":{"id":"30098","nombre":"Uruguay"},"funcion":null,"id":"30098020","municipio":{"id":null,"nombre":null},"nombre":"Caseros","provincia":{"id":"30","nombre":"Entre Ríos"}},{"categoria":"Localidad simple","centroide":{"lat":-32.6723717845853,"lon":-58.325119237234},"departamento":{"id":"30098","nombre":"Uruguay"},"funcion":null,"id":"30098030","municipio":{"id":null,"nombre":null},"nombre":"Colonia Elía","provincia":{"id":"30","nombre":"Entre Ríos"}},{"categoria":"Localidad simple","centroide":{"lat":-32.4853601673728,"lon":-58.2320517380782},"departamento":{"id":"30098","nombre":"Uruguay"},"funcion":"CABECERA_DEPARTAMENTO","id":"30098040","municipio":{"id":null,"nombre":null},"nombre":"Concepción del Uruguay","provincia":{"id":"30","nombre":"Entre Ríos"}},{"categoria":"Localidad simple","centroide":{"lat":-32.434613979879,"lon":-58.6330137118779},"departamento":{"id":"30098","nombre":"Uruguay"},"funcion":null,"id":"30098060","municipio":{"id":null,"nombre":null},"nombre":"Herrera","provincia":{"id":"30","nombre":"Entre Ríos"}},{"categoria":"Localidad simple","centroide":{"lat":-32.0926666859344,"lon":-58.9575923552081},"departamento":{"id":"30098","nombre":"Uruguay"},"funcion":null,"id":"30098070","municipio":{"id":null,"nombre":null},"nombre":"Las Moscas","provincia":{"id":"30","nombre":"Entre Ríos"}},{"categoria":"Localidad simple","centroide":{"lat":-32.2629479332194,"lon":-58.9066108120783},"departamento":{"id":"30098","nombre":"Uruguay"},"funcion":null,"id":"30098080","municipio":{"id":null,"nombre":null},"nombre":"Líbaros","provincia":{"id":"30","nombre":"Entre Ríos"}},{"categoria":"Localidad simple","centroide":{"lat":-32.2570116072535,"lon":-58.422728628517},"departamento":{"id":"30098","nombre":"Uruguay"},"funcion":null,"id":"30098090","municipio":{"id":null,"nombre":null},"nombre":"1º de Mayo","provincia":{"id":"30","nombre":"Entre Ríos"}},{"categoria":"Localidad simple","centroide":{"lat":-32.3456507831337,"lon":-58.4438591145895},"departamento":{"id":"30098","nombre":"Uruguay"},"funcion":null,"id":"30098100","municipio":{"id":null,"nombre":null},"nombre":"Pronunciamiento","provincia":{"id":"30","nombre":"Entre Ríos"}},{"categoria":"Localidad simple","centroide":{"lat":-32.3459729612346,"lon":-58.9697454142681},"departamento":{"id":"30098","nombre":"Uruguay"},"funcion":null,"id":"30098110","municipio":{"id":null,"nombre":null},"nombre":"Rocamora","provincia":{"id":"30","nombre":"Entre Ríos"}},{"categoria":"Localidad simple","centroide":{"lat":-32.1762466320214,"lon":-58.7864822456476},"departamento":{"id":"30098","nombre":"Uruguay"},"funcion":null,"id":"30098120","municipio":{"id":null,"nombre":null},"nombre":"Santa Anita","provincia":{"id":"30","nombre":"Entre Ríos"}},{"categoria":"Localidad simple","centroide":{"lat":-32.3987091260597,"lon":-58.7440638984338},"departamento":{"id":"30098","nombre":"Uruguay"},"funcion":null,"id":"30098130","municipio":{"id":null,"nombre":null},"nombre":"Villa Mantero","provincia":{"id":"30","nombre":"Entre Ríos"}},{"categoria":"Localidad simple","centroide":{"lat":-32.446319897702,"lon":-58.4359138343848},"departamento":{"id":"30098","nombre":"Uruguay"},"funcion":null,"id":"30098140","municipio":{"id":null,"nombre":null},"nombre":"Villa San Justo","provincia":{"id":"30","nombre":"Entre Ríos"}},{"categoria":"Localidad simple","centroide":{"lat":-32.1800624013874,"lon":-58.9301272035017},"departamento":{"id":"30098","nombre":"Uruguay"},"funcion":null,"id":"30098150","municipio":{"id":null,"nombre":null},"nombre":"Villa San Marcial (Est. Gobernador Urquiza)","provincia":{"id":"30","nombre":"Entre Ríos"}},{"categoria":"Localidad simple","centroide":{"lat":-32.5338102554011,"lon":-60.0356966118049},"departamento":{"id":"30105","nombre":"Victoria"},"funcion":null,"id":"30105010","municipio":{"id":null,"nombre":null},"nombre":"Antelo","provincia":{"id":"30","nombre":"Entre Ríos"}},{"categoria":"Localidad simple","centroide":{"lat":-32.3100409280054,"lon":-60.4202063551195},"departamento":{"id":"30105","nombre":"Victoria"},"funcion":null,"id":"30105040","municipio":{"id":null,"nombre":null},"nombre":"Molino Doll","provincia":{"id":"30","nombre":"Entre Ríos"}},{"categoria":"Localidad simple","centroide":{"lat":-32.6205968368011,"lon":-60.1533126380172},"departamento":{"id":"30105","nombre":"Victoria"},"funcion":"CABECERA_DEPARTAMENTO","id":"30105060","municipio":{"id":null,"nombre":null},"nombre":"Victoria","provincia":{"id":"30","nombre":"Entre Ríos"}},{"categoria":"Localidad simple","centroide":{"lat":-31.9082390010537,"lon":-59.2607000636169},"departamento":{"id":"30113","nombre":"Villaguay"},"funcion":null,"id":"30113010","municipio":{"id":null,"nombre":null},"nombre":"Estación Raíces","provincia":{"id":"30","nombre":"Entre Ríos"}},{"categoria":"Localidad simple","centroide":{"lat":-31.9569336301554,"lon":-58.8491174614017},"departamento":{"id":"30113","nombre":"Villaguay"},"funcion":null,"id":"30113020","municipio":{"id":null,"nombre":null},"nombre":"Ingeniero Miguel Sajaroff","provincia":{"id":"30","nombre":"Entre Ríos"}},{"categoria":"Localidad simple","centroide":{"lat":-31.7336733349136,"lon":-58.634038044354},"departamento":{"id":"30113","nombre":"Villaguay"},"funcion":null,"id":"30113030","municipio":{"id":null,"nombre":null},"nombre":"Jubileo","provincia":{"id":"30","nombre":"Entre Ríos"}},{"categoria":"Localidad simple","centroide":{"lat":-31.8057649065599,"lon":-59.1651613714524},"departamento":{"id":"30113","nombre":"Villaguay"},"funcion":null,"id":"30113050","municipio":{"id":null,"nombre":null},"nombre":"Paso de la Laguna","provincia":{"id":"30","nombre":"Entre Ríos"}},{"categoria":"Localidad simple","centroide":{"lat":-31.8301004555882,"lon":-58.8233903183527},"departamento":{"id":"30113","nombre":"Villaguay"},"funcion":null,"id":"30113060","municipio":{"id":null,"nombre":null},"nombre":"Villa Clara","provincia":{"id":"30","nombre":"Entre Ríos"}},{"categoria":"Localidad simple","centroide":{"lat":-31.9870146859479,"lon":-58.9634179145279},"departamento":{"id":"30113","nombre":"Villaguay"},"funcion":null,"id":"30113070","municipio":{"id":null,"nombre":null},"nombre":"Villa Domínguez","provincia":{"id":"30","nombre":"Entre Ríos"}},{"categoria":"Localidad simple","centroide":{"lat":-31.8654413738655,"lon":-59.0290628351274},"departamento":{"id":"30113","nombre":"Villaguay"},"funcion":"CABECERA_DEPARTAMENTO","id":"30113080","municipio":{"id":null,"nombre":null},"nombre":"Villaguay","provincia":{"id":"30","nombre":"Entre Ríos"}}],"parametros":{"max":600,"provincia":["30"]},"total":169}