{"cantidad":73,"inicio":0,"localidades_censales":[{"categoria":"Localidad simple","centroide":{"lat":-28.556466715579,"lon":-66.8179833262002},"departamento":{"id":"46007","nombre":"Arauco"},"funcion":"CABECERA_DEPARTAMENTO","id":"46007010","municipio":{"id":"460007","nombre":"Arauco"},"nombre":"Aimogasta","provincia":{"id":"46","nombre":"La Rioja"}},{"categoria":"Localidad simple","centroide":{"lat":-28.5834031870202,"lon":-66.8036412937626},"departamento":{"id":"46007","nombre":"Arauco"},"funcion":null,"id":"46007020","municipio":{"id":"460007","nombre":"Arauco"},"nombre":"Arauco","provincia":{"id":"46","nombre":"La Rioja"}},{"categoria":"Localidad simple","centroide":{"lat":-28.3871788034279,"lon":-66.8369122348367},"departamento":{"id":"46007","nombre":"Arauco"},"funcion":null,"id":"46007030","municipio":{"id":"460007","nombre":"Arauco"},"nombre":"Bañado de los Pantanos","provincia":{"id":"46","nombre":"La Rioja"}},{"categoria":"Localidad simple","centroide":{"lat":-28.6648262993633,"lon":-66.5166195609666},"departamento":{"id":"46007","nombre":"Arauco"},"funcion":null,"id":"46007040","municipio":{"id":"460007","nombre":"Arauco"},"nombre":"Estación Mazán","provincia":{"id":"46","nombre":"La Rioja"}},{"categoria":"Localidad simple","centroide":{"lat":-28.591774966521,"lon":-66.5563885931113},"departamento":{"id":"46007","nombre":"Arauco"},"funcion":null,"id":"46007045","municipio":{"id":"460007","nombre":"Arauco"},"nombre":"Termas de Santa Teresita","provincia":{"id":"46","nombre":"La Rioja"}},{"categoria":"Localidad simple","centroide":{"lat":-28.6586281834455,"lon":-66.5552758852995},"departamento":{"id":"46007","nombre":"Arauco"},"funcion":null,"id":"46007050","municipio":{"id":"460007","nombre":"Arauco"},"nombre":"Villa Mazán","provincia":{"id":"46","nombre":"La Rioja"}},{"categoria":"Localidad simple","centroide":{"lat":-29.4217827668094,"lon":-66.856675379963},"departamento":{"id":"46014","nombre":"Capital"},"funcion":"CAPITAL_PROVINCIA","id":"46014010","municipio":{"id":"460014","nombre":"Capital"},"nombre":"La Rioja","provincia":{"id":"46","nombre":"La Rioja"}},{"categoria":"Localidad simple","centroide":{"lat":-28.8554609845772,"lon":-66.9376617661779},"departamento":{"id":"46021","nombre":"Castro Barros"},"funcion":"CABECERA_DEPARTAMENTO","id":"46021010","municipio":{"id":"460021","nombre":"Castro Barros"},"nombre":"Aminga","provincia":{"id":"46","nombre":"La Rioja"}},{"categoria":"Localidad simple","centroide":{"lat":-28.8155900262519,"lon":-66.9439245714903},"departamento":{"id":"46021","nombre":"Castro Barros"},"funcion":null,"id":"46021020","municipio":{"id":"460021","nombre":"Castro Barros"},"nombre":"Anillaco","provincia":{"id":"46","nombre":"La Rioja"}},{"categoria":"Localidad simple","centroide":{"lat":-28.7272509428901,"lon":-66.9328944677286},"departamento":{"id":"46021","nombre":"Castro Barros"},"funcion":null,"id":"46021030","municipio":{"id":"460021","nombre":"Castro Barros"},"nombre":"Anjullón","provincia":{"id":"46","nombre":"La Rioja"}},{"categoria":"Localidad simple","centroide":{"lat":-28.8979801822511,"lon":-66.9765194957537},"departamento":{"id":"46021","nombre":"Castro Barros"},"funcion":null,"id":"46021040","municipio":{"id":"460021","nombre":"Castro Barros"},"nombre":"Chuquis","provincia":{"id":"46","nombre":"La Rioja"}},{"categoria":"Localidad simple","centroide":{"lat":-28.7544152281739,"lon":-66.9389202939918},"departamento":{"id":"46021","nombre":"Castro Barros"},"funcion":null,"id":"46021050","municipio":{"id":"460021","nombre":"Castro Barros"},"nombre":"Los Molinos","provincia":{"id":"46","nombre":"La Rioja"}},{"categoria":"Localidad simple","centroide":{"lat":-28.9370760269909,"lon":-66.9665171496043},"departamento":{"id":"46021","nombre":"Castro Barros"},"funcion":null,"id":"46021060","municipio":{"id":"460021","nombre":"Castro Barros"},"nombre":"Pinchas","provincia":{"id":"46","nombre":"La Rioja"}},{"categoria":"Localidad simple","centroide":{"lat":-28.6697090457958,"lon":-66.9281338379098},"departamento":{"id":"46021","nombre":"Castro Barros"},"funcion":null,"id":"46021070","municipio":{"id":"460021","nombre":"Castro Barros"},"nombre":"San Pedro","provincia":{"id":"46","nombre":"La Rioja"}},{"categoria":"Localidad simple","centroide":{"lat":-28.6835042192049,"lon":-66.9654939868505},"departamento":{"id":"46021","nombre":"Castro Barros"},"funcion":null,"id":"46021080","municipio":{"id":"460021","nombre":"Castro Barros"},"nombre":"Santa Vera Cruz","provincia":{"id":"46","nombre":"La Rioja"}},{"categoria":"Localidad simple","centroide":{"lat":-29.4772470519152,"lon":-67.7729134098149},"departamento":{"id":"46028","nombre":"Coronel Felipe Varela"},"funcion":null,"id":"46028010","municipio":{"id":"460028","nombre":"Coronel Felipe Varela"},"nombre":"Aicuñá","provincia":{"id":"46","nombre":"La Rioja"}},{"categoria":"Localidad simple","centroide":{"lat":-29.5235988937734,"lon":-68.5510416477867},"departamento":{"id":"46028","nombre":"Coronel Felipe Varela"},"funcion":null,"id":"46028020","municipio":{"id":"460028","nombre":"Coronel Felipe Varela"},"nombre":"Guandacol","provincia":{"id":"46","nombre":"La Rioja"}},{"categoria":"Localidad simple","centroide":{"lat":-29.3713119289112,"lon":-68.2271328398885},"departamento":{"id":"46028","nombre":"Coronel Felipe Varela"},"funcion":null,"id":"46028030","municipio":{"id":"460028","nombre":"Coronel Felipe Varela"},"nombre":"Los Palacios","provincia":{"id":"46","nombre":"La Rioja"}},{"categoria":"Localidad simple","centroide":{"lat":-29.5412536132819,"lon":-68.0970404734464},"departamento":{"id":"46028","nombre":"Coronel Felipe Varela"},"funcion":null,"id":"46028040","municipio":{"id":"460028","nombre":"Coronel Felipe Varela"},"nombre":"Pagancillo","provincia":{"id":"46","nombre":"La Rioja"}},{"categoria":"Localidad simple","centroide":{"lat":-29.3154179985068,"lon":-68.2235171977516},"departamento":{"id":"46028","nombre":"Coronel Felipe Varela"},"funcion":"CABECERA_DEPARTAMENTO","id":"46028050","municipio":{"id":"460028","nombre":"Coronel Felipe Varela"},"nombre":"Villa Unión","provincia":{"id":"46","nombre":"La Rioja"}},{"categoria":"Localidad simple","centroide":{"lat":-30.3772951613355,"lon":-66.3240368838483},"departamento":{"id":"46035","nombre":"Chamical"},"funcion":"CABECERA_DEPARTAMENTO","id":"46035010","municipio":{"id":"460035","nombre":"Chamical"},"nombre":"Chamical","provincia":{"id":"46","nombre":"La Rioja"}},{"categoria":"Localidad simple","centroide":{"lat":-30.4293153810224,"lon":-66.3586422456665},"departamento":{"id":"46035","nombre":"Chamical"},"funcion":null,"id":"46035020","municipio":{"id":"460035","nombre":"Chamical"},"nombre":"Polco","provincia":{"id":"46","nombre":"La Rioja"}},{"categoria":"Localidad simple","centroide":{"lat":-29.1640818319015,"lon":-67.5008066881041},"departamento":{"id":"46042","nombre":"Chilecito"},"funcion":"CABECERA_DEPARTAMENTO","id":"46042010","municipio":{"id":"460042","nombre":"Chilecito"},"nombre":"Chilecito","provincia":{"id":"46","nombre":"La Rioja"}},{"categoria":"Localidad simple","centroide":{"lat":-29.2540980171571,"lon":-67.4261365134089},"departamento":{"id":"46042","nombre":"Chilecito"},"funcion":null,"id":"46042020","municipio":{"id":"460042","nombre":"Chilecito"},"nombre":"Colonia Anguinán","provincia":{"id":"46","nombre":"La Rioja"}},{"categoria":"Localidad simple","centroide":{"lat":-29.6731660020358,"lon":-67.3823669132229},"departamento":{"id":"46042","nombre":"Chilecito"},"funcion":null,"id":"46042030","municipio":{"id":"460042","nombre":"Chilecito"},"nombre":"Colonia Catinzaco","provincia":{"id":"46","nombre":"La Rioja"}},{"categoria":"Localidad simple","centroide":{"lat":-29.2029666175252,"lon":-67.4003467202303},"departamento":{"id":"46042","nombre":"Chilecito"},"funcion":null,"id":"46042040","municipio":{"id":"460042","nombre":"Chilecito"},"nombre":"Colonia Malligasta","provincia":{"id":"46","nombre":"La Rioja"}},{"categoria":"Localidad simple","centroide":{"lat":-29.4490716382323,"lon":-67.4914198732182},"departamento":{"id":"46042","nombre":"Chilecito"},"funcion":null,"id":"46042050","municipio":{"id":"460042","nombre":"Chilecito"},"nombre":"Colonia Vichigasta","provincia":{"id":"46","nombre":"La Rioja"}},{"categoria":"Localidad simple","centroide":{"lat":-29.1927256872976,"lon":-67.6392754274079},"departamento":{"id":"46042","nombre":"Chilecito"},"funcion":null,"id":"46042060","municipio":{"id":"460042","nombre":"Chilecito"},"nombre":"Guanchín","provincia":{"id":"46","nombre":"La Rioja"}},{"categoria":"Localidad simple","centroide":{"lat":-29.1772024890585,"lon":-67.4408316312776},"departamento":{"id":"46042","nombre":"Chilecito"},"funcion":null,"id":"46042070","municipio":{"id":"460042","nombre":"Chilecito"},"nombre":"Malligasta","provincia":{"id":"46","nombre":"La Rioja"}},{"categoria":"Localidad simple","centroide":{"lat":-29.3410380679446,"lon":-67.6618699588304},"departamento":{"id":"46042","nombre":"Chilecito"},"funcion":null,"id":"46042080","municipio":{"id":"460042","nombre":"Chilecito"},"nombre":"Miranda","provincia":{"id":"46","nombre":"La Rioja"}},{"categoria":"Localidad simple","centroide":{"lat":-29.3040959439682,"lon":-67.5072784622018},"departamento":{"id":"46042","nombre":"Chilecito"},"funcion":null,"id":"46042090","municipio":{"id":"460042","nombre":"Chilecito"},"nombre":"Nonogasta","provincia":{"id":"46","nombre":"La Rioja"}},{"categoria":"Localidad simple","centroide":{"lat":-29.1217634888802,"lon":-67.475895961327},"departamento":{"id":"46042","nombre":"Chilecito"},"funcion":null,"id":"46042100","municipio":{"id":"460042","nombre":"Chilecito"},"nombre":"San Nicolás","provincia":{"id":"46","nombre":"La Rioja"}},{"categoria":"Localidad simple","centroide":{"lat":-29.1330615805931,"lon":-67.5576081781931},"departamento":{"id":"46042","nombre":"Chilecito"},"funcion":null,"id":"46042110","municipio":{"id":"460042","nombre":"Chilecito"},"nombre":"Santa Florentina","provincia":{"id":"46","nombre":"La Rioja"}},{"categoria":"Localidad simple","centroide":{"lat":-29.3203738957214,"lon":-67.6277959527272},"departamento":{"id":"46042","nombre":"Chilecito"},"funcion":null,"id":"46042120","municipio":{"id":"460042","nombre":"Chilecito"},"nombre":"Sañogasta","provincia":{"id":"46","nombre":"La Rioja"}},{"categoria":"Localidad simple","centroide":{"lat":-29.1494438672162,"lon":-67.4296645756575},"departamento":{"id":"46042","nombre":"Chilecito"},"funcion":null,"id":"46042130","municipio":{"id":"460042","nombre":"Chilecito"},"nombre":"Tilimuqui","provincia":{"id":"46","nombre":"La Rioja"}},{"categoria":"Localidad simple","centroide":{"lat":-29.4885973737241,"lon":-67.5022852097799},"departamento":{"id":"46042","nombre":"Chilecito"},"funcion":null,"id":"46042140","municipio":{"id":"460042","nombre":"Chilecito"},"nombre":"Vichigasta","provincia":{"id":"46","nombre":"La Rioja"}},{"categoria":"Localidad simple","centroide":{"lat":-28.8736691237644,"lon":-67.5689979264385},"departamento":{"id":"46049","nombre":"Famatina"},"funcion":null,"id":"46049010","municipio":{"id":"460049","nombre":"Famatina"},"nombre":"Alto Carrizal","provincia":{"id":"46","nombre":"La Rioja"}},{"categoria":"Localidad simple","centroide":{"lat":-28.6595753462725,"lon":-67.6529605556859},"departamento":{"id":"46049","nombre":"Famatina"},"funcion":null,"id":"46049020","municipio":{"id":"460049","nombre":"Famatina"},"nombre":"Angulos","provincia":{"id":"46","nombre":"La Rioja"}},{"categoria":"Localidad simple","centroide":{"lat":-28.8250781693493,"lon":-67.3233196534937},"departamento":{"id":"46049","nombre":"Famatina"},"funcion":null,"id":"46049030","municipio":{"id":"460049","nombre":"Famatina"},"nombre":"Antinaco","provincia":{"id":"46","nombre":"La Rioja"}},{"categoria":"Localidad simple","centroide":{"lat":-28.8911007689177,"lon":-67.5667461563502},"departamento":{"id":"46049","nombre":"Famatina"},"funcion":null,"id":"46049040","municipio":{"id":"460049","nombre":"Famatina"},"nombre":"Bajo Carrizal","provincia":{"id":"46","nombre":"La Rioja"}},{"categoria":"Localidad simple","centroide":{"lat":-28.5560208289878,"lon":-67.6264406513676},"departamento":{"id":"46049","nombre":"Famatina"},"funcion":null,"id":"46049050","municipio":{"id":"460049","nombre":"Famatina"},"nombre":"Campanas","provincia":{"id":"46","nombre":"La Rioja"}},{"categoria":"Localidad simple","centroide":{"lat":-28.6123449106976,"lon":-67.5874723425836},"departamento":{"id":"46049","nombre":"Famatina"},"funcion":null,"id":"46049060","municipio":{"id":"460049","nombre":"Famatina"},"nombre":"Chañarmuyo","provincia":{"id":"46","nombre":"La Rioja"}},{"categoria":"Localidad simple","centroide":{"lat":-28.9291000348798,"lon":-67.5207596756721},"departamento":{"id":"46049","nombre":"Famatina"},"funcion":"CABECERA_DEPARTAMENTO","id":"46049070","municipio":{"id":"460049","nombre":"Famatina"},"nombre":"Famatina","provincia":{"id":"46","nombre":"La Rioja"}},{"categoria":"Localidad simple","centroide":{"lat":-28.4724817643376,"lon":-67.6918652569621},"departamento":{"id":"46049","nombre":"Famatina"},"funcion":null,"id":"46049080","municipio":{"id":"460049","nombre":"Famatina"},"nombre":"La Cuadra","provincia":{"id":"46","nombre":"La Rioja"}},{"categoria":"Localidad simple","centroide":{"lat":-28.5815077306519,"lon":-67.4508379497994},"departamento":{"id":"46049","nombre":"Famatina"},"funcion":null,"id":"46049090","municipio":{"id":"460049","nombre":"Famatina"},"nombre":"Pituil","provincia":{"id":"46","nombre":"La Rioja"}},{"categoria":"Localidad simple","centroide":{"lat":-28.9731598381662,"lon":-67.5201315513043},"departamento":{"id":"46049","nombre":"Famatina"},"funcion":null,"id":"46049100","municipio":{"id":"460049","nombre":"Famatina"},"nombre":"Plaza Vieja","provincia":{"id":"46","nombre":"La Rioja"}},{"categoria":"Localidad simple","centroide":{"lat":-28.4907371197999,"lon":-67.6899252647169},"departamento":{"id":"46049","nombre":"Famatina"},"funcion":null,"id":"46049110","municipio":{"id":"460049","nombre":"Famatina"},"nombre":"Santa Cruz","provincia":{"id":"46","nombre":"La Rioja"}},{"categoria":"Localidad simple","centroide":{"lat":-28.5600668428724,"lon":-67.6855704208219},"departamento":{"id":"46049","nombre":"Famatina"},"funcion":null,"id":"46049120","municipio":{"id":"460049","nombre":"Famatina"},"nombre":"Santo Domingo","provincia":{"id":"46","nombre":"La Rioja"}},{"categoria":"Localidad simple","centroide":{"lat":-30.165433857594,"lon":-66.556575245663},"departamento":{"id":"46056","nombre":"General Ángel V. Peñaloza"},"funcion":null,"id":"46056010","municipio":{"id":"460056","nombre":"General Ángel Vicente Peñaloza"},"nombre":"Punta de los Llanos","provincia":{"id":"46","nombre":"La Rioja"}},{"categoria":"Localidad simple","centroide":{"lat":-30.5173084388038,"lon":-66.5413792482073},"departamento":{"id":"46056","nombre":"General Ángel V. Peñaloza"},"funcion":"CABECERA_DEPARTAMENTO","id":"46056020","municipio":{"id":"460056","nombre":"General Ángel Vicente Peñaloza"},"nombre":"Tama","provincia":{"id":"46","nombre":"La Rioja"}},{"categoria":"Localidad simple","centroide":{"lat":-30.5956924271806,"lon":-65.7419372748158},"departamento":{"id":"46063","nombre":"General Belgrano"},"funcion":null,"id":"46063010","municipio":{"id":"460063","nombre":"General Belgrano"},"nombre":"Castro Barros","provincia":{"id":"46","nombre":"La Rioja"}},{"categoria":"Localidad simple","centroide":{"lat":-30.5590304532238,"lon":-65.97359312056},"departamento":{"id":"46063","nombre":"General Belgrano"},"funcion":null,"id":"46063020","municipio":{"id":"460063","nombre":"General Belgrano"},"nombre":"Chañar","provincia":{"id":"46","nombre":"La Rioja"}},{"categoria":"Localidad simple","centroide":{"lat":-30.6446137810741,"lon":-66.238741686799},"departamento":{"id":"46063","nombre":"General Belgrano"},"funcion":null,"id":"46063030","municipio":{"id":"460063","nombre":"General Belgrano"},"nombre":"Loma Blanca","provincia":{"id":"46","nombre":"La Rioja"}},{"categoria":"Localidad simple","centroide":{"lat":-30.6399759885817,"lon":-66.2780604124609},"departamento":{"id":"46063","nombre":"General Belgrano"},"funcion":"CABECERA_DEPARTAMENTO","id":"46063040","municipio":{"id":"460063","nombre":"General Belgrano"},"nombre":"Olta","provincia":{"id":"46","nombre":"La Rioja"}},{"categoria":"Localidad simple","centroide":{"lat":-30.815543887629,"lon":-66.6194814951279},"departamento":{"id":"46070","nombre":"General Juan F. Quiroga"},"funcion":"CABECERA_DEPARTAMENTO","id":"46070010","municipio":{"id":"460070","nombre":"General Juan Facundo Quiroga"},"nombre":"Malanzán","provincia":{"id":"46","nombre":"La Rioja"}},{"categoria":"Localidad simple","centroide":{"lat":-30.8640381344546,"lon":-66.4051056083956},"departamento":{"id":"46070","nombre":"General Juan F. Quiroga"},"funcion":null,"id":"46070020","municipio":{"id":"460070","nombre":"General Juan Facundo Quiroga"},"nombre":"Nácate","provincia":{"id":"46","nombre":"La Rioja"}},{"categoria":"Localidad simple","centroide":{"lat":-30.847619186484,"lon":-66.7186798501751},"departamento":{"id":"46070","nombre":"General Juan F. Quiroga"},"funcion":null,"id":"46070030","municipio":{"id":"460070","nombre":"General Juan Facundo Quiroga"},"nombre":"Portezuelo","provincia":{"id":"46","nombre":"La Rioja"}},{"categoria":"Localidad simple","centroide":{"lat":-31.0900907205412,"lon":-66.7571869922571},"departamento":{"id":"46070","nombre":"General Juan F. Quiroga"},"funcion":null,"id":"46070040","municipio":{"id":"460070","nombre":"General Juan Facundo Quiroga"},"nombre":"San Antonio","provincia":{"id":"46","nombre":"La Rioja"}},{"categoria":"Localidad simple","centroide":{"lat":-29.0207515543035,"lon":-68.2253713917754},"departamento":{"id":"46077","nombre":"General Lamadrid"},"funcion":"CABECERA_DEPARTAMENTO","id":"46077010","municipio":{"id":"460077","nombre":"General Lamadrid"},"nombre":"Villa Castelli","provincia":{"id":"46","nombre":"La Rioja"}},{"categoria":"Localidad simple","centroide":{"lat":-31.1413359277957,"lon":-66.3603819377386},"departamento":{"id":"46084","nombre":"General Ocampo"},"funcion":null,"id":"46084010","municipio":{"id":"460084","nombre":"General Ocampo"},"nombre":"Ambil","provincia":{"id":"46","nombre":"La Rioja"}},{"categoria":"Localidad simple","centroide":{"lat":-30.9752909491233,"lon":-66.195388379496},"departamento":{"id":"46084","nombre":"General Ocampo"},"funcion":null,"id":"46084020","municipio":{"id":"460084","nombre":"General Ocampo"},"nombre":"Colonia Ortiz de Ocampo","provincia":{"id":"46","nombre":"La Rioja"}},{"categoria":"Localidad simple","centroide":{"lat":-31.0131717520523,"lon":-65.9882554540382},"departamento":{"id":"46084","nombre":"General Ocampo"},"funcion":null,"id":"46084030","municipio":{"id":"460084","nombre":"General Ocampo"},"nombre":"Milagro","provincia":{"id":"46","nombre":"La Rioja"}},{"categoria":"Localidad simple","centroide":{"lat":-30.8195242375591,"lon":-66.2483100669123},"departamento":{"id":"46084","nombre":"General Ocampo"},"funcion":null,"id":"46084040","municipio":{"id":"460084","nombre":"General Ocampo"},"nombre":"Olpas","provincia":{"id":"46","nombre":"La Rioja"}},{"categoria":"Localidad simple","centroide":{"lat":-30.9665198359206,"lon":-66.2356607957535},"departamento":{"id":"46084","nombre":"General Ocampo"},"funcion":"CABECERA_DEPARTAMENTO","id":"46084050","municipio":{"id":"460084","nombre":"General Ocampo"},"nombre":"Santa Rita de Catuna","provincia":{"id":"46","nombre":"La Rioja"}},{"categoria":"Localidad simple","centroide":{"lat":-31.582978877023,"lon":-66.2514026305989},"departamento":{"id":"46091","nombre":"General San Martín"},"funcion":"CABECERA_DEPARTAMENTO","id":"46091010","municipio":{"id":"460091","nombre":"General San Martín"},"nombre":"Ulapes","provincia":{"id":"46","nombre":"La Rioja"}},{"categoria":"Localidad simple","centroide":{"lat":-28.6604900543905,"lon":-68.3668741365882},"departamento":{"id":"46098","nombre":"Vinchina"},"funcion":null,"id":"46098010","municipio":{"id":"460098","nombre":"Vinchina"},"nombre":"Jagüé","provincia":{"id":"46","nombre":"La Rioja"}},{"categoria":"Localidad simple","centroide":{"lat":-28.7797111463416,"lon":-68.2060368408699},"departamento":{"id":"46098","nombre":"Vinchina"},"funcion":"CABECERA_DEPARTAMENTO","id":"46098020","municipio":{"id":"460098","nombre":"Vinchina"},"nombre":"Villa San José de Vinchina","provincia":{"id":"46","nombre":"La Rioja"}},{"categoria":"Localidad simple","centroide":{"lat":-30.0611119791655,"lon":-67.5084950612514},"departamento":{"id":"46105","nombre":"Independencia"},"funcion":null,"id":"46105010","municipio":{"id":"460105","nombre":"Independencia"},"nombre":"Amaná","provincia":{"id":"46","nombre":"La Rioja"}},{"categoria":"Localidad simple","centroide":{"lat":-30.0522114405959,"lon":-66.8915886798436},"departamento":{"id":"46105","nombre":"Independencia"},"funcion":"CABECERA_DEPARTAMENTO","id":"46105020","municipio":{"id":"460105","nombre":"Independencia"},"nombre":"Patquía","provincia":{"id":"46","nombre":"La Rioja"}},{"categoria":"Localidad simple","centroide":{"lat":-31.3506186314416,"lon":-66.6046417930744},"departamento":{"id":"46112","nombre":"Rosario Vera Peñaloza"},"funcion":"CABECERA_DEPARTAMENTO","id":"46112010","municipio":{"id":"460112","nombre":"Rosario Vera Peñaloza"},"nombre":"Chepes","provincia":{"id":"46","nombre":"La Rioja"}},{"categoria":"Localidad simple","centroide":{"lat":-31.2240295500516,"lon":-66.3334915975105},"departamento":{"id":"46112","nombre":"Rosario Vera Peñaloza"},"funcion":null,"id":"46112020","municipio":{"id":"460112","nombre":"Rosario Vera Peñaloza"},"nombre":"Desiderio Tello","provincia":{"id":"46","nombre":"La Rioja"}},{"categoria":"Localidad simple","centroide":{"lat":-28.3944162851627,"lon":-67.0854614422013},"departamento":{"id":"46119","nombre":"San Blas de Los Sauces"},"funcion":"CABECERA_DEPARTAMENTO","id":"46119010","municipio":{"id":"460119","nombre":"San Blas de los Sauces"},"nombre":"Salicas - San Blas","provincia":{"id":"46","nombre":"La Rioja"}},{"categoria":"Localidad simple","centroide":{"lat":-29.3064491456943,"lon":-67.0414097362521},"departamento":{"id":"46126","nombre":"Sanagasta"},"funcion":"CABECERA_DEPARTAMENTO","id":"46126010","municipio":{"id":"460126","nombre":"Sanagasta"},"nombre":"Villa Sanagasta","provincia":{"id":"46","nombre":"La Rioja"}}],"parametros":{"max":600,"provincia":["46"]},"total":73}