{"cantidad":152,"inicio":0,"localidades_censales":[{"categoria":"Componente de localidad compuesta","centroide":{"lat":-32.8869689020603,"lon":-68.8543075227812},"departamento":{"id":"50007","nombre":"Capital"},"funcion":"CAPITAL_PROVINCIA","id":"50007010","municipio":{"id":"500007","nombre":"Capital"},"nombre":"Mendoza","provincia":{"id":"50","nombre":"Mendoza"}},{"categoria":"Localidad simple","centroide":{"lat":-35.0009124317209,"lon":-67.5161818289008},"departamento":{"id":"50014","nombre":"General Alvear"},"funcion":null,"id":"50014010","municipio":{"id":"500014","nombre":"General Alvear"},"nombre":"Bowen","provincia":{"id":"50","nombre":"Mendoza"}},{"categoria":"Localidad simple","centroide":{"lat":-35.144905789879,"lon":-67.662955044003},"departamento":{"id":"50014","nombre":"General Alvear"},"funcion":null,"id":"50014020","municipio":{"id":"500014","nombre":"General Alvear"},"nombre":"Carmensa","provincia":{"id":"50","nombre":"Mendoza"}},{"categoria":"Localidad simple","centroide":{"lat":-34.9804694766564,"lon":-67.7009950828175},"departamento":{"id":"50014","nombre":"General Alvear"},"funcion":"CABECERA_DEPARTAMENTO","id":"50014030","municipio":{"id":"500014","nombre":"General Alvear"},"nombre":"General Alvear","provincia":{"id":"50","nombre":"Mendoza"}},{"categoria":"Localidad simple","centroide":{"lat":-34.9792604557582,"lon":-67.6590893207424},"departamento":{"id":"50014","nombre":"General Alvear"},"funcion":null,"id":"50014040","municipio":{"id":"500014","nombre":"General Alvear"},"nombre":"Los Compartos","provincia":{"id":"50","nombre":"Mendoza"}},{"categoria":"Componente de localidad compuesta","centroide":{"lat":-32.912774732031,"lon":-68.8573023658093},"departamento":{"id":"50021","nombre":"Godoy Cruz"},"funcion":"CABECERA_DEPARTAMENTO","id":"50021010","municipio":{"id":"500021","nombre":"Godoy Cruz"},"nombre":"Godoy Cruz","provincia":{"id":"50","nombre":"Mendoza"}},{"categoria":"Localidad simple","centroide":{"lat":-32.8445720739406,"lon":-68.7264015008636},"departamento":{"id":"50028","nombre":"Guaymallén"},"funcion":null,"id":"50028010","municipio":{"id":"500028","nombre":"Guaymallén"},"nombre":"Colonia Segovia","provincia":{"id":"50","nombre":"Mendoza"}},{"categoria":"Componente de localidad compuesta","centroide":{"lat":-32.8846059966724,"lon":-68.822041143923},"departamento":{"id":"50028","nombre":"Guaymallén"},"funcion":"CABECERA_DEPARTAMENTO","id":"50028020","municipio":{"id":"500028","nombre":"Guaymallén"},"nombre":"Guaymallén","provincia":{"id":"50","nombre":"Mendoza"}},{"categoria":"Localidad simple","centroide":{"lat":-32.9212115151732,"lon":-68.6797682708562},"departamento":{"id":"50028","nombre":"Guaymallén"},"funcion":null,"id":"50028030","municipio":{"id":"500028","nombre":"Guaymallén"},"nombre":"La Primavera","provincia":{"id":"50","nombre":"Mendoza"}},{"categoria":"Localidad simple","centroide":{"lat":-32.8978664693342,"lon":-68.7059893326546},"departamento":{"id":"50028","nombre":"Guaymallén"},"funcion":null,"id":"50028040","municipio":{"id":"500028","nombre":"Guaymallén"},"nombre":"Los Corralitos","provincia":{"id":"50","nombre":"Mendoza"}},{"categoria":"Localidad simple","centroide":{"lat":-32.8596996528436,"lon":-68.6889630695891},"departamento":{"id":"50028","nombre":"Guaymallén"},"funcion":null,"id":"50028050","municipio":{"id":"500028","nombre":"Guaymallén"},"nombre":"Puente de Hierro","provincia":{"id":"50","nombre":"Mendoza"}},{"categoria":"Localidad simple","centroide":{"lat":-33.1247748459194,"lon":-68.4208925887498},"departamento":{"id":"50035","nombre":"Junín"},"funcion":null,"id":"50035010","municipio":{"id":"500035","nombre":"Junín"},"nombre":"Ingeniero Giagnoni","provincia":{"id":"50","nombre":"Mendoza"}},{"categoria":"Localidad simple","centroide":{"lat":-33.1450869905894,"lon":-68.4921156012444},"departamento":{"id":"50035","nombre":"Junín"},"funcion":"CABECERA_DEPARTAMENTO","id":"50035020","municipio":{"id":"500035","nombre":"Junín"},"nombre":"Junín","provincia":{"id":"50","nombre":"Mendoza"}},{"categoria":"Componente de localidad compuesta","centroide":{"lat":-33.0927994762934,"lon":-68.4874957269843},"departamento":{"id":"50035","nombre":"Junín"},"funcion":null,"id":"50035030","municipio":{"id":"500035","nombre":"Junín"},"nombre":"La Colonia","provincia":{"id":"50","nombre":"Mendoza"}},{"categoria":"Localidad simple","centroide":{"lat":-33.1010405156356,"lon":-68.5675279714819},"departamento":{"id":"50035","nombre":"Junín"},"funcion":null,"id":"50035040","municipio":{"id":"500035","nombre":"Junín"},"nombre":"Los Barriales","provincia":{"id":"50","nombre":"Mendoza"}},{"categoria":"Componente de localidad compuesta","centroide":{"lat":-33.1762912284126,"lon":-68.6231695474222},"departamento":{"id":"50035","nombre":"Junín"},"funcion":null,"id":"50035050","municipio":{"id":"500035","nombre":"Junín"},"nombre":"Medrano","provincia":{"id":"50","nombre":"Mendoza"}},{"categoria":"Localidad simple","centroide":{"lat":-33.2032507142375,"lon":-68.3832295478144},"departamento":{"id":"50035","nombre":"Junín"},"funcion":null,"id":"50035060","municipio":{"id":"500035","nombre":"Junín"},"nombre":"Phillips","provincia":{"id":"50","nombre":"Mendoza"}},{"categoria":"Localidad simple","centroide":{"lat":-33.1211519220358,"lon":-68.6046800215005},"departamento":{"id":"50035","nombre":"Junín"},"funcion":null,"id":"50035070","municipio":{"id":"500035","nombre":"Junín"},"nombre":"Rodríguez Peña","provincia":{"id":"50","nombre":"Mendoza"}},{"categoria":"Componente de localidad compuesta","centroide":{"lat":-33.4052265769401,"lon":-67.1641664357197},"departamento":{"id":"50042","nombre":"La Paz"},"funcion":null,"id":"50042010","municipio":{"id":"500042","nombre":"La Paz"},"nombre":"Desaguadero","provincia":{"id":"50","nombre":"Mendoza"}},{"categoria":"Localidad simple","centroide":{"lat":-33.4610193184125,"lon":-67.5595785270435},"departamento":{"id":"50042","nombre":"La Paz"},"funcion":"CABECERA_DEPARTAMENTO","id":"50042020","municipio":{"id":"500042","nombre":"La Paz"},"nombre":"La Paz","provincia":{"id":"50","nombre":"Mendoza"}},{"categoria":"Localidad simple","centroide":{"lat":-33.4645156410531,"lon":-67.6055785043576},"departamento":{"id":"50042","nombre":"La Paz"},"funcion":null,"id":"50042030","municipio":{"id":"500042","nombre":"La Paz"},"nombre":"Villa Antigua","provincia":{"id":"50","nombre":"Mendoza"}},{"categoria":"Localidad simple","centroide":{"lat":-33.0355485376289,"lon":-69.0065315897085},"departamento":{"id":"50049","nombre":"Las Heras"},"funcion":null,"id":"50049010","municipio":{"id":"500049","nombre":"Las Heras"},"nombre":"Blanco Encalada","provincia":{"id":"50","nombre":"Mendoza"}},{"categoria":"Componente de localidad compuesta","centroide":{"lat":-32.5843190924112,"lon":-68.6808088140347},"departamento":{"id":"50049","nombre":"Las Heras"},"funcion":null,"id":"50049030","municipio":{"id":"500049","nombre":"Las Heras"},"nombre":"Jocolí","provincia":{"id":"50","nombre":"Mendoza"}},{"categoria":"Localidad simple","centroide":{"lat":-32.8080667698938,"lon":-70.0865801080922},"departamento":{"id":"50049","nombre":"Las Heras"},"funcion":null,"id":"50049040","municipio":{"id":null,"nombre":null},"nombre":"Las Cuevas","provincia":{"id":"50","nombre":"Mendoza"}},{"categoria":"Componente de localidad compuesta","centroide":{"lat":-32.84908036795,"lon":-68.8460355137271},"departamento":{"id":"50049","nombre":"Las Heras"},"funcion":"CABECERA_DEPARTAMENTO","id":"50049050","municipio":{"id":"500049","nombre":"Las Heras"},"nombre":"Las Heras","provincia":{"id":"50","nombre":"Mendoza"}},{"categoria":"Localidad simple","centroide":{"lat":-32.8369504266306,"lon":-69.853921289708},"departamento":{"id":"50049","nombre":"Las Heras"},"funcion":null,"id":"50049060","municipio":{"id":"500063","nombre":"Luján de Cuyo"},"nombre":"Los Penitentes","provincia":{"id":"50","nombre":"Mendoza"}},{"categoria":"Localidad simple","centroide":{"lat":-32.8190384814445,"lon":-69.7097346552796},"departamento":{"id":"50049","nombre":"Las Heras"},"funcion":null,"id":"50049080","municipio":{"id":"500049","nombre":"Las Heras"},"nombre":"Polvaredas","provincia":{"id":"50","nombre":"Mendoza"}},{"categoria":"Localidad simple","centroide":{"lat":-32.8198835580194,"lon":-69.9250020499226},"departamento":{"id":"50049","nombre":"Las Heras"},"funcion":null,"id":"50049090","municipio":{"id":"500049","nombre":"Las Heras"},"nombre":"Puente del Inca","provincia":{"id":"50","nombre":"Mendoza"}},{"categoria":"Localidad simple","centroide":{"lat":-32.8488063589156,"lon":-69.7763007026824},"departamento":{"id":"50049","nombre":"Las Heras"},"funcion":null,"id":"50049100","municipio":{"id":"500049","nombre":"Las Heras"},"nombre":"Punta de Vacas","provincia":{"id":"50","nombre":"Mendoza"}},{"categoria":"Localidad simple","centroide":{"lat":-32.595534534037,"lon":-69.3582053741335},"departamento":{"id":"50049","nombre":"Las Heras"},"funcion":null,"id":"50049110","municipio":{"id":"500049","nombre":"Las Heras"},"nombre":"Uspallata","provincia":{"id":"50","nombre":"Mendoza"}},{"categoria":"Localidad simple","centroide":{"lat":-32.6727794218396,"lon":-68.5922473767644},"departamento":{"id":"50056","nombre":"Lavalle"},"funcion":null,"id":"50056010","municipio":{"id":"500056","nombre":"Lavalle"},"nombre":"Barrio Alto del Olvido","provincia":{"id":"50","nombre":"Mendoza"}},{"categoria":"Localidad simple","centroide":{"lat":-32.6740793089036,"lon":-68.6692696211748},"departamento":{"id":"50056","nombre":"Lavalle"},"funcion":null,"id":"50056020","municipio":{"id":"500049","nombre":"Las Heras"},"nombre":"Barrio Jocolí II","provincia":{"id":"50","nombre":"Mendoza"}},{"categoria":"Localidad simple","centroide":{"lat":-32.6969328275291,"lon":-68.5506213221533},"departamento":{"id":"50056","nombre":"Lavalle"},"funcion":null,"id":"50056030","municipio":{"id":"500056","nombre":"Lavalle"},"nombre":"Barrio La Palmera","provincia":{"id":"50","nombre":"Mendoza"}},{"categoria":"Localidad simple","centroide":{"lat":-32.8128590043094,"lon":-68.6835373227478},"departamento":{"id":"50056","nombre":"Lavalle"},"funcion":null,"id":"50056040","municipio":{"id":"500056","nombre":"Lavalle"},"nombre":"Barrio La Pega","provincia":{"id":"50","nombre":"Mendoza"}},{"categoria":"Localidad simple","centroide":{"lat":-32.6111088672136,"lon":-68.5714746331489},"departamento":{"id":"50056","nombre":"Lavalle"},"funcion":null,"id":"50056050","municipio":{"id":"500056","nombre":"Lavalle"},"nombre":"Barrio Lagunas de Bartoluzzi","provincia":{"id":"50","nombre":"Mendoza"}},{"categoria":"Localidad simple","centroide":{"lat":-32.7153965740662,"lon":-68.6584021819475},"departamento":{"id":"50056","nombre":"Lavalle"},"funcion":null,"id":"50056060","municipio":{"id":"500056","nombre":"Lavalle"},"nombre":"Barrio Los Jarilleros","provincia":{"id":"50","nombre":"Mendoza"}},{"categoria":"Localidad simple","centroide":{"lat":-32.6972155730911,"lon":-68.3295580099939},"departamento":{"id":"50056","nombre":"Lavalle"},"funcion":null,"id":"50056070","municipio":{"id":"500056","nombre":"Lavalle"},"nombre":"Barrio Los Olivos","provincia":{"id":"50","nombre":"Mendoza"}},{"categoria":"Localidad simple","centroide":{"lat":-32.7027597161507,"lon":-68.3124921903406},"departamento":{"id":"50056","nombre":"Lavalle"},"funcion":null,"id":"50056075","municipio":{"id":"500056","nombre":"Lavalle"},"nombre":"Barrio Virgen del Rosario","provincia":{"id":"50","nombre":"Mendoza"}},{"categoria":"Localidad simple","centroide":{"lat":-32.7568943573314,"lon":-68.4085951866641},"departamento":{"id":"50056","nombre":"Lavalle"},"funcion":null,"id":"50056080","municipio":{"id":"500056","nombre":"Lavalle"},"nombre":"Costa de Araujo","provincia":{"id":"50","nombre":"Mendoza"}},{"categoria":"Localidad simple","centroide":{"lat":-32.7813088245414,"lon":-68.5336830930131},"departamento":{"id":"50056","nombre":"Lavalle"},"funcion":null,"id":"50056090","municipio":{"id":"500056","nombre":"Lavalle"},"nombre":"El Paramillo","provincia":{"id":"50","nombre":"Mendoza"}},{"categoria":"Localidad simple","centroide":{"lat":-32.7623132216047,"lon":-68.6476011792189},"departamento":{"id":"50056","nombre":"Lavalle"},"funcion":null,"id":"50056100","municipio":{"id":"500056","nombre":"Lavalle"},"nombre":"El Vergel","provincia":{"id":"50","nombre":"Mendoza"}},{"categoria":"Localidad simple","centroide":{"lat":-32.6781612841627,"lon":-68.3282636512792},"departamento":{"id":"50056","nombre":"Lavalle"},"funcion":null,"id":"50056110","municipio":{"id":"500056","nombre":"Lavalle"},"nombre":"Ingeniero Gustavo André","provincia":{"id":"50","nombre":"Mendoza"}},{"categoria":"Componente de localidad compuesta","centroide":{"lat":-32.6125410510041,"lon":-68.6790408967957},"departamento":{"id":"50056","nombre":"Lavalle"},"funcion":null,"id":"50056120","municipio":{"id":"500049","nombre":"Las Heras"},"nombre":"Jocolí","provincia":{"id":"50","nombre":"Mendoza"}},{"categoria":"Localidad simple","centroide":{"lat":-32.7274623415005,"lon":-68.6602319575528},"departamento":{"id":"50056","nombre":"Lavalle"},"funcion":null,"id":"50056130","municipio":{"id":"500056","nombre":"Lavalle"},"nombre":"Jocolí Viejo","provincia":{"id":"50","nombre":"Mendoza"}},{"categoria":"Localidad simple","centroide":{"lat":-32.8208151905733,"lon":-68.6164140763718},"departamento":{"id":"50056","nombre":"Lavalle"},"funcion":null,"id":"50056140","municipio":{"id":"500056","nombre":"Lavalle"},"nombre":"Las Violetas","provincia":{"id":"50","nombre":"Mendoza"}},{"categoria":"Localidad simple","centroide":{"lat":-32.6755279452669,"lon":-68.646211303192},"departamento":{"id":"50056","nombre":"Lavalle"},"funcion":null,"id":"50056150","municipio":{"id":"500056","nombre":"Lavalle"},"nombre":"3 de Mayo","provincia":{"id":"50","nombre":"Mendoza"}},{"categoria":"Localidad simple","centroide":{"lat":-32.7196142429269,"lon":-68.6030438537926},"departamento":{"id":"50056","nombre":"Lavalle"},"funcion":"CABECERA_DEPARTAMENTO","id":"50056160","municipio":{"id":"500056","nombre":"Lavalle"},"nombre":"Villa Tulumaya","provincia":{"id":"50","nombre":"Mendoza"}},{"categoria":"Localidad simple","centroide":{"lat":-33.1173844439975,"lon":-68.8960235351828},"departamento":{"id":"50063","nombre":"Luján de Cuyo"},"funcion":null,"id":"50063010","municipio":{"id":"500063","nombre":"Luján de Cuyo"},"nombre":"Agrelo","provincia":{"id":"50","nombre":"Mendoza"}},{"categoria":"Localidad simple","centroide":{"lat":-33.0753282280468,"lon":-68.9250404043338},"departamento":{"id":"50063","nombre":"Luján de Cuyo"},"funcion":null,"id":"50063020","municipio":{"id":"500063","nombre":"Luján de Cuyo"},"nombre":"Barrio Perdriel IV","provincia":{"id":"50","nombre":"Mendoza"}},{"categoria":"Localidad simple","centroide":{"lat":-33.0367104413315,"lon":-69.1159068278817},"departamento":{"id":"50063","nombre":"Luján de Cuyo"},"funcion":null,"id":"50063030","municipio":{"id":"500063","nombre":"Luján de Cuyo"},"nombre":"Cacheuta","provincia":{"id":"50","nombre":"Mendoza"}},{"categoria":"Localidad simple","centroide":{"lat":-33.0705184504058,"lon":-68.9343214868201},"departamento":{"id":"50063","nombre":"Luján de Cuyo"},"funcion":null,"id":"50063040","municipio":{"id":"500063","nombre":"Luján de Cuyo"},"nombre":"Costa Flores","provincia":{"id":"50","nombre":"Mendoza"}},{"categoria":"Localidad simple","centroide":{"lat":-33.3037433557192,"lon":-68.7554951968491},"departamento":{"id":"50063","nombre":"Luján de Cuyo"},"funcion":null,"id":"50063050","municipio":{"id":"500063","nombre":"Luján de Cuyo"},"nombre":"El Carrizal","provincia":{"id":"50","nombre":"Mendoza"}},{"categoria":"Localidad simple","centroide":{"lat":-32.9505951182203,"lon":-69.290869662361},"departamento":{"id":"50063","nombre":"Luján de Cuyo"},"funcion":null,"id":"50063060","municipio":{"id":"500063","nombre":"Luján de Cuyo"},"nombre":"El Salto","provincia":{"id":"50","nombre":"Mendoza"}},{"categoria":"Localidad simple","centroide":{"lat":-33.0343953638206,"lon":-68.9757201428593},"departamento":{"id":"50063","nombre":"Luján de Cuyo"},"funcion":null,"id":"50063070","municipio":{"id":"500063","nombre":"Luján de Cuyo"},"nombre":"Las Compuertas","provincia":{"id":"50","nombre":"Mendoza"}},{"categoria":"Localidad simple","centroide":{"lat":-33.0086616496676,"lon":-69.2784957322078},"departamento":{"id":"50063","nombre":"Luján de Cuyo"},"funcion":null,"id":"50063080","municipio":{"id":"500063","nombre":"Luján de Cuyo"},"nombre":"Las Vegas","provincia":{"id":"50","nombre":"Mendoza"}},{"categoria":"Componente de localidad compuesta","centroide":{"lat":-33.0339983971284,"lon":-68.8883741550889},"departamento":{"id":"50063","nombre":"Luján de Cuyo"},"funcion":"CABECERA_DEPARTAMENTO","id":"50063090","municipio":{"id":"500063","nombre":"Luján de Cuyo"},"nombre":"Luján de Cuyo","provincia":{"id":"50","nombre":"Mendoza"}},{"categoria":"Localidad simple","centroide":{"lat":-33.075612044678,"lon":-68.8937832343457},"departamento":{"id":"50063","nombre":"Luján de Cuyo"},"funcion":null,"id":"50063100","municipio":{"id":"500063","nombre":"Luján de Cuyo"},"nombre":"Perdriel","provincia":{"id":"50","nombre":"Mendoza"}},{"categoria":"Localidad simple","centroide":{"lat":-32.945486814506,"lon":-69.2086449063503},"departamento":{"id":"50063","nombre":"Luján de Cuyo"},"funcion":null,"id":"50063110","municipio":{"id":"500063","nombre":"Luján de Cuyo"},"nombre":"Potrerillos","provincia":{"id":"50","nombre":"Mendoza"}},{"categoria":"Localidad simple","centroide":{"lat":-33.2109451573216,"lon":-68.8972088041994},"departamento":{"id":"50063","nombre":"Luján de Cuyo"},"funcion":null,"id":"50063120","municipio":{"id":"500063","nombre":"Luján de Cuyo"},"nombre":"Ugarteche","provincia":{"id":"50","nombre":"Mendoza"}},{"categoria":"Localidad simple","centroide":{"lat":-33.0833355400244,"lon":-68.734379255702},"departamento":{"id":"50070","nombre":"Maipú"},"funcion":null,"id":"50070010","municipio":{"id":"500070","nombre":"Maipú"},"nombre":"Barrancas","provincia":{"id":"50","nombre":"Mendoza"}},{"categoria":"Localidad simple","centroide":{"lat":-33.0103244179699,"lon":-68.7265920537236},"departamento":{"id":"50070","nombre":"Maipú"},"funcion":null,"id":"50070020","municipio":{"id":"500070","nombre":"Maipú"},"nombre":"Barrio Jesús de Nazaret","provincia":{"id":"50","nombre":"Mendoza"}},{"categoria":"Localidad simple","centroide":{"lat":-33.0293391100097,"lon":-68.7922412248266},"departamento":{"id":"50070","nombre":"Maipú"},"funcion":null,"id":"50070030","municipio":{"id":"500070","nombre":"Maipú"},"nombre":"Cruz de Piedra","provincia":{"id":"50","nombre":"Mendoza"}},{"categoria":"Localidad simple","centroide":{"lat":-32.8558805014704,"lon":-68.6544793531012},"departamento":{"id":"50070","nombre":"Maipú"},"funcion":null,"id":"50070040","municipio":{"id":"500028","nombre":"Guaymallén"},"nombre":"El Pedregal","provincia":{"id":"50","nombre":"Mendoza"}},{"categoria":"Localidad simple","centroide":{"lat":-33.0049403047291,"lon":-68.6612377129717},"departamento":{"id":"50070","nombre":"Maipú"},"funcion":null,"id":"50070050","municipio":{"id":"500070","nombre":"Maipú"},"nombre":"Fray Luis Beltrán","provincia":{"id":"50","nombre":"Mendoza"}},{"categoria":"Componente de localidad compuesta","centroide":{"lat":-32.9791481716669,"lon":-68.7983205922319},"departamento":{"id":"50070","nombre":"Maipú"},"funcion":"CABECERA_DEPARTAMENTO","id":"50070060","municipio":{"id":"500070","nombre":"Maipú"},"nombre":"Maipú","provincia":{"id":"50","nombre":"Mendoza"}},{"categoria":"Localidad simple","centroide":{"lat":-32.9880056754694,"lon":-68.7010652608485},"departamento":{"id":"50070","nombre":"Maipú"},"funcion":null,"id":"50070070","municipio":{"id":"500070","nombre":"Maipú"},"nombre":"Rodeo del Medio","provincia":{"id":"50","nombre":"Mendoza"}},{"categoria":"Localidad simple","centroide":{"lat":-33.0046770772728,"lon":-68.8012715093769},"departamento":{"id":"50070","nombre":"Maipú"},"funcion":null,"id":"50070080","municipio":{"id":"500070","nombre":"Maipú"},"nombre":"Russell","provincia":{"id":"50","nombre":"Mendoza"}},{"categoria":"Localidad simple","centroide":{"lat":-33.0285638174611,"lon":-68.5981475648442},"departamento":{"id":"50070","nombre":"Maipú"},"funcion":null,"id":"50070090","municipio":{"id":"500070","nombre":"Maipú"},"nombre":"San Roque","provincia":{"id":"50","nombre":"Mendoza"}},{"categoria":"Localidad simple","centroide":{"lat":-33.0183178912335,"lon":-68.6288154157882},"departamento":{"id":"50070","nombre":"Maipú"},"funcion":null,"id":"50070100","municipio":{"id":"500070","nombre":"Maipú"},"nombre":"Villa Teresa","provincia":{"id":"50","nombre":"Mendoza"}},{"categoria":"Localidad simple","centroide":{"lat":-36.1532390359812,"lon":-68.3048428543176},"departamento":{"id":"50077","nombre":"Malargüe"},"funcion":null,"id":"50077010","municipio":{"id":"500077","nombre":"Malargüe"},"nombre":"Agua Escondida","provincia":{"id":"50","nombre":"Mendoza"}},{"categoria":"Localidad simple","centroide":{"lat":-35.1539650781638,"lon":-70.0817910991633},"departamento":{"id":"50077","nombre":"Malargüe"},"funcion":null,"id":"50077030","municipio":{"id":"500077","nombre":"Malargüe"},"nombre":"Las Leñas","provincia":{"id":"50","nombre":"Mendoza"}},{"categoria":"Localidad simple","centroide":{"lat":-35.4770107120892,"lon":-69.5886491865782},"departamento":{"id":"50077","nombre":"Malargüe"},"funcion":"CABECERA_DEPARTAMENTO","id":"50077040","municipio":{"id":"500077","nombre":"Malargüe"},"nombre":"Malargüe","provincia":{"id":"50","nombre":"Mendoza"}},{"categoria":"Localidad simple","centroide":{"lat":-33.1624680014146,"lon":-68.506066911759},"departamento":{"id":"50084","nombre":"Rivadavia"},"funcion":null,"id":"50084010","municipio":{"id":"500084","nombre":"Rivadavia"},"nombre":"Andrade","provincia":{"id":"50","nombre":"Mendoza"}},{"categoria":"Localidad simple","centroide":{"lat":-33.2692489302548,"lon":-68.4383631651486},"departamento":{"id":"50084","nombre":"Rivadavia"},"funcion":null,"id":"50084020","municipio":{"id":"500084","nombre":"Rivadavia"},"nombre":"Barrio Cooperativa Los Campamentos","provincia":{"id":"50","nombre":"Mendoza"}},{"categoria":"Localidad simple","centroide":{"lat":-33.2304643070476,"lon":-68.4837256054182},"departamento":{"id":"50084","nombre":"Rivadavia"},"funcion":null,"id":"50084030","municipio":{"id":"500084","nombre":"Rivadavia"},"nombre":"Barrio Rivadavia","provincia":{"id":"50","nombre":"Mendoza"}},{"categoria":"Localidad simple","centroide":{"lat":-33.2906467543213,"lon":-68.3475556585344},"departamento":{"id":"50084","nombre":"Rivadavia"},"funcion":null,"id":"50084040","municipio":{"id":"500084","nombre":"Rivadavia"},"nombre":"El Mirador","provincia":{"id":"50","nombre":"Mendoza"}},{"categoria":"Localidad simple","centroide":{"lat":-33.2736424903476,"lon":-68.3224073182181},"departamento":{"id":"50084","nombre":"Rivadavia"},"funcion":null,"id":"50084050","municipio":{"id":"500084","nombre":"Rivadavia"},"nombre":"La Central","provincia":{"id":"50","nombre":"Mendoza"}},{"categoria":"Localidad simple","centroide":{"lat":-33.3170659709211,"lon":-68.3343426790403},"departamento":{"id":"50084","nombre":"Rivadavia"},"funcion":null,"id":"50084060","municipio":{"id":"500084","nombre":"Rivadavia"},"nombre":"La Esperanza","provincia":{"id":"50","nombre":"Mendoza"}},{"categoria":"Localidad simple","centroide":{"lat":-33.2686978003988,"lon":-68.4637895827175},"departamento":{"id":"50084","nombre":"Rivadavia"},"funcion":null,"id":"50084070","municipio":{"id":"500084","nombre":"Rivadavia"},"nombre":"La Florida","provincia":{"id":"50","nombre":"Mendoza"}},{"categoria":"Localidad simple","centroide":{"lat":-33.2163869013321,"lon":-68.5166268853637},"departamento":{"id":"50084","nombre":"Rivadavia"},"funcion":null,"id":"50084080","municipio":{"id":"500084","nombre":"Rivadavia"},"nombre":"La Libertad","provincia":{"id":"50","nombre":"Mendoza"}},{"categoria":"Localidad simple","centroide":{"lat":-33.1813162523339,"lon":-68.5759160345244},"departamento":{"id":"50084","nombre":"Rivadavia"},"funcion":null,"id":"50084090","municipio":{"id":"500084","nombre":"Rivadavia"},"nombre":"Los Árboles","provincia":{"id":"50","nombre":"Mendoza"}},{"categoria":"Localidad simple","centroide":{"lat":-33.2763607628549,"lon":-68.4008493516637},"departamento":{"id":"50084","nombre":"Rivadavia"},"funcion":null,"id":"50084100","municipio":{"id":"500084","nombre":"Rivadavia"},"nombre":"Los Campamentos","provincia":{"id":"50","nombre":"Mendoza"}},{"categoria":"Componente de localidad compuesta","centroide":{"lat":-33.1787463382932,"lon":-68.6219271508794},"departamento":{"id":"50084","nombre":"Rivadavia"},"funcion":null,"id":"50084110","municipio":{"id":"500035","nombre":"Junín"},"nombre":"Medrano","provincia":{"id":"50","nombre":"Mendoza"}},{"categoria":"Localidad simple","centroide":{"lat":-33.1753415989261,"lon":-68.4371725862256},"departamento":{"id":"50084","nombre":"Rivadavia"},"funcion":null,"id":"50084120","municipio":{"id":"500084","nombre":"Rivadavia"},"nombre":"Mundo Nuevo","provincia":{"id":"50","nombre":"Mendoza"}},{"categoria":"Localidad simple","centroide":{"lat":-33.20630887725,"lon":-68.5835152115814},"departamento":{"id":"50084","nombre":"Rivadavia"},"funcion":null,"id":"50084130","municipio":{"id":"500084","nombre":"Rivadavia"},"nombre":"Reducción de Abajo","provincia":{"id":"50","nombre":"Mendoza"}},{"categoria":"Localidad simple","centroide":{"lat":-33.19403215031,"lon":-68.4736188877526},"departamento":{"id":"50084","nombre":"Rivadavia"},"funcion":"CABECERA_DEPARTAMENTO","id":"50084140","municipio":{"id":"500084","nombre":"Rivadavia"},"nombre":"Rivadavia","provincia":{"id":"50","nombre":"Mendoza"}},{"categoria":"Localidad simple","centroide":{"lat":-33.2059806305116,"lon":-68.4335589109359},"departamento":{"id":"50084","nombre":"Rivadavia"},"funcion":null,"id":"50084150","municipio":{"id":"500084","nombre":"Rivadavia"},"nombre":"Santa María de Oro","provincia":{"id":"50","nombre":"Mendoza"}},{"categoria":"Localidad simple","centroide":{"lat":-33.8321066130502,"lon":-69.0490032074461},"departamento":{"id":"50091","nombre":"San Carlos"},"funcion":null,"id":"50091005","municipio":{"id":"500091","nombre":"San Carlos"},"nombre":"Barrio Carrasco","provincia":{"id":"50","nombre":"Mendoza"}},{"categoria":"Localidad simple","centroide":{"lat":-33.8386533809471,"lon":-69.1303497215531},"departamento":{"id":"50091","nombre":"San Carlos"},"funcion":null,"id":"50091010","municipio":{"id":"500091","nombre":"San Carlos"},"nombre":"Barrio El Cepillo","provincia":{"id":"50","nombre":"Mendoza"}},{"categoria":"Localidad simple","centroide":{"lat":-33.8934020968296,"lon":-69.0804633582269},"departamento":{"id":"50091","nombre":"San Carlos"},"funcion":null,"id":"50091020","municipio":{"id":"500091","nombre":"San Carlos"},"nombre":"Chilecito","provincia":{"id":"50","nombre":"Mendoza"}},{"categoria":"Localidad simple","centroide":{"lat":-33.7850224488547,"lon":-69.0729045258216},"departamento":{"id":"50091","nombre":"San Carlos"},"funcion":null,"id":"50091030","municipio":{"id":"500091","nombre":"San Carlos"},"nombre":"Eugenio Bustos","provincia":{"id":"50","nombre":"Mendoza"}},{"categoria":"Localidad simple","centroide":{"lat":-33.7386757381913,"lon":-69.128125564969},"departamento":{"id":"50091","nombre":"San Carlos"},"funcion":null,"id":"50091040","municipio":{"id":"500091","nombre":"San Carlos"},"nombre":"La Consulta","provincia":{"id":"50","nombre":"Mendoza"}},{"categoria":"Localidad simple","centroide":{"lat":-33.9452563037172,"lon":-69.0824859034273},"departamento":{"id":"50091","nombre":"San Carlos"},"funcion":null,"id":"50091050","municipio":{"id":"500091","nombre":"San Carlos"},"nombre":"Pareditas","provincia":{"id":"50","nombre":"Mendoza"}},{"categoria":"Localidad simple","centroide":{"lat":-33.7744494556708,"lon":-69.0490909178745},"departamento":{"id":"50091","nombre":"San Carlos"},"funcion":"CABECERA_DEPARTAMENTO","id":"50091060","municipio":{"id":"500091","nombre":"San Carlos"},"nombre":"San Carlos","provincia":{"id":"50","nombre":"Mendoza"}},{"categoria":"Localidad simple","centroide":{"lat":-33.1195037386563,"lon":-68.4180218961221},"departamento":{"id":"50098","nombre":"San Martín"},"funcion":null,"id":"50098020","municipio":{"id":"500035","nombre":"Junín"},"nombre":"Alto Verde","provincia":{"id":"50","nombre":"Mendoza"}},{"categoria":"Localidad simple","centroide":{"lat":-33.0411467362082,"lon":-68.3541527366296},"departamento":{"id":"50098","nombre":"San Martín"},"funcion":null,"id":"50098030","municipio":{"id":"500098","nombre":"San Martín"},"nombre":"Barrio Chivilcoy","provincia":{"id":"50","nombre":"Mendoza"}},{"categoria":"Localidad simple","centroide":{"lat":-32.8468555962865,"lon":-68.4100199226668},"departamento":{"id":"50098","nombre":"San Martín"},"funcion":null,"id":"50098040","municipio":{"id":"500098","nombre":"San Martín"},"nombre":"Barrio Emanuel","provincia":{"id":"50","nombre":"Mendoza"}},{"categoria":"Localidad simple","centroide":{"lat":-33.155290161095,"lon":-68.3543621643557},"departamento":{"id":"50098","nombre":"San Martín"},"funcion":null,"id":"50098045","municipio":{"id":"500035","nombre":"Junín"},"nombre":"Barrio La Estación","provincia":{"id":"50","nombre":"Mendoza"}},{"categoria":"Localidad simple","centroide":{"lat":-32.9785115683367,"lon":-68.3051018239824},"departamento":{"id":"50098","nombre":"San Martín"},"funcion":null,"id":"50098050","municipio":{"id":"500098","nombre":"San Martín"},"nombre":"Barrio Los Charabones","provincia":{"id":"50","nombre":"Mendoza"}},{"categoria":"Localidad simple","centroide":{"lat":-33.1309714824443,"lon":-68.351277983232},"departamento":{"id":"50098","nombre":"San Martín"},"funcion":null,"id":"50098055","municipio":{"id":"500098","nombre":"San Martín"},"nombre":"Barrio Ntra. Sra. De Fátima","provincia":{"id":"50","nombre":"Mendoza"}},{"categoria":"Localidad simple","centroide":{"lat":-32.9801177295667,"lon":-68.4765253845307},"departamento":{"id":"50098","nombre":"San Martín"},"funcion":null,"id":"50098060","municipio":{"id":"500098","nombre":"San Martín"},"nombre":"Chapanay","provincia":{"id":"50","nombre":"Mendoza"}},{"categoria":"Localidad simple","centroide":{"lat":-33.038335582925,"lon":-68.4594029398777},"departamento":{"id":"50098","nombre":"San Martín"},"funcion":null,"id":"50098070","municipio":{"id":"500098","nombre":"San Martín"},"nombre":"Chivilcoy","provincia":{"id":"50","nombre":"Mendoza"}},{"categoria":"Localidad simple","centroide":{"lat":-33.077333062302,"lon":-68.3982838200908},"departamento":{"id":"50098","nombre":"San Martín"},"funcion":null,"id":"50098073","municipio":{"id":"500098","nombre":"San Martín"},"nombre":"El Espino","provincia":{"id":"50","nombre":"Mendoza"}},{"categoria":"Localidad simple","centroide":{"lat":-33.1617709736953,"lon":-68.2954844260235},"departamento":{"id":"50098","nombre":"San Martín"},"funcion":null,"id":"50098077","municipio":{"id":"500098","nombre":"San Martín"},"nombre":"El Ramblón","provincia":{"id":"50","nombre":"Mendoza"}},{"categoria":"Localidad simple","centroide":{"lat":-33.0109966347898,"lon":-68.3936801268914},"departamento":{"id":"50098","nombre":"San Martín"},"funcion":null,"id":"50098080","municipio":{"id":"500098","nombre":"San Martín"},"nombre":"Montecaseros","provincia":{"id":"50","nombre":"Mendoza"}},{"categoria":"Localidad simple","centroide":{"lat":-32.7450606095364,"lon":-68.335450804198},"departamento":{"id":"50098","nombre":"San Martín"},"funcion":null,"id":"50098090","municipio":{"id":"500098","nombre":"San Martín"},"nombre":"Nueva California","provincia":{"id":"50","nombre":"Mendoza"}},{"categoria":"Componente de localidad compuesta","centroide":{"lat":-33.0857149342167,"lon":-68.4809496647904},"departamento":{"id":"50098","nombre":"San Martín"},"funcion":"CABECERA_DEPARTAMENTO","id":"50098100","municipio":{"id":"500098","nombre":"San Martín"},"nombre":"San Martín","provincia":{"id":"50","nombre":"Mendoza"}},{"categoria":"Localidad simple","centroide":{"lat":-32.8994801779561,"lon":-68.3990962886724},"departamento":{"id":"50098","nombre":"San Martín"},"funcion":null,"id":"50098110","municipio":{"id":"500098","nombre":"San Martín"},"nombre":"Tres Porteñas","provincia":{"id":"50","nombre":"Mendoza"}},{"categoria":"Localidad simple","centroide":{"lat":-34.573654040475,"lon":-68.3294341868083},"departamento":{"id":"50105","nombre":"San Rafael"},"funcion":null,"id":"50105010","municipio":{"id":"500105","nombre":"San Rafael"},"nombre":"Barrio Campos El Toledano","provincia":{"id":"50","nombre":"Mendoza"}},{"categoria":"Localidad simple","centroide":{"lat":-34.7898637210549,"lon":-67.9874651693673},"departamento":{"id":"50105","nombre":"San Rafael"},"funcion":null,"id":"50105020","municipio":{"id":"500105","nombre":"San Rafael"},"nombre":"Barrio El Nevado","provincia":{"id":"50","nombre":"Mendoza"}},{"categoria":"Localidad simple","centroide":{"lat":-34.5522300096664,"lon":-68.3032401705615},"departamento":{"id":"50105","nombre":"San Rafael"},"funcion":null,"id":"50105030","municipio":{"id":"500105","nombre":"San Rafael"},"nombre":"Barrio Empleados de Comercio","provincia":{"id":"50","nombre":"Mendoza"}},{"categoria":"Localidad simple","centroide":{"lat":-34.645100562517,"lon":-68.2754543992411},"departamento":{"id":"50105","nombre":"San Rafael"},"funcion":null,"id":"50105040","municipio":{"id":"500105","nombre":"San Rafael"},"nombre":"Barrio Intendencia","provincia":{"id":"50","nombre":"Mendoza"}},{"categoria":"Localidad simple","centroide":{"lat":-34.5835613146883,"lon":-68.4654391114406},"departamento":{"id":"50105","nombre":"San Rafael"},"funcion":null,"id":"50105050","municipio":{"id":"500105","nombre":"San Rafael"},"nombre":"Capitán Montoya","provincia":{"id":"50","nombre":"Mendoza"}},{"categoria":"Localidad simple","centroide":{"lat":-34.6324580327433,"lon":-68.4389760704098},"departamento":{"id":"50105","nombre":"San Rafael"},"funcion":null,"id":"50105060","municipio":{"id":"500105","nombre":"San Rafael"},"nombre":"Cuadro Benegas","provincia":{"id":"50","nombre":"Mendoza"}},{"categoria":"Localidad simple","centroide":{"lat":-35.0353713864246,"lon":-68.6806149266928},"departamento":{"id":"50105","nombre":"San Rafael"},"funcion":null,"id":"50105070","municipio":{"id":"500105","nombre":"San Rafael"},"nombre":"El Nihuil","provincia":{"id":"50","nombre":"Mendoza"}},{"categoria":"Localidad simple","centroide":{"lat":-35.0821772227253,"lon":-69.5924127887533},"departamento":{"id":"50105","nombre":"San Rafael"},"funcion":null,"id":"50105080","municipio":{"id":"500105","nombre":"San Rafael"},"nombre":"El Sosneado","provincia":{"id":"50","nombre":"Mendoza"}},{"categoria":"Localidad simple","centroide":{"lat":-34.6856449091453,"lon":-68.2855505604444},"departamento":{"id":"50105","nombre":"San Rafael"},"funcion":null,"id":"50105090","municipio":{"id":"500105","nombre":"San Rafael"},"nombre":"El Tropezón","provincia":{"id":"50","nombre":"Mendoza"}},{"categoria":"Localidad simple","centroide":{"lat":-34.6803228490363,"lon":-68.1358422919666},"departamento":{"id":"50105","nombre":"San Rafael"},"funcion":null,"id":"50105100","municipio":{"id":"500105","nombre":"San Rafael"},"nombre":"Goudge","provincia":{"id":"50","nombre":"Mendoza"}},{"categoria":"Localidad simple","centroide":{"lat":-34.9146831219286,"lon":-67.8191470107259},"departamento":{"id":"50105","nombre":"San Rafael"},"funcion":null,"id":"50105110","municipio":{"id":"500105","nombre":"San Rafael"},"nombre":"Jaime Prats","provincia":{"id":"50","nombre":"Mendoza"}},{"categoria":"Localidad simple","centroide":{"lat":-34.6449297466889,"lon":-68.0147704723126},"departamento":{"id":"50105","nombre":"San Rafael"},"funcion":null,"id":"50105120","municipio":{"id":"500105","nombre":"San Rafael"},"nombre":"La Llave Nueva","provincia":{"id":"50","nombre":"Mendoza"}},{"categoria":"Localidad simple","centroide":{"lat":-34.8384149976168,"lon":-68.2539362219611},"departamento":{"id":"50105","nombre":"San Rafael"},"funcion":null,"id":"50105130","municipio":{"id":"500105","nombre":"San Rafael"},"nombre":"Las Malvinas","provincia":{"id":"50","nombre":"Mendoza"}},{"categoria":"Localidad simple","centroide":{"lat":-34.6099288763693,"lon":-68.6205430790631},"departamento":{"id":"50105","nombre":"San Rafael"},"funcion":null,"id":"50105140","municipio":{"id":"500105","nombre":"San Rafael"},"nombre":"Los Reyunos","provincia":{"id":"50","nombre":"Mendoza"}},{"categoria":"Localidad simple","centroide":{"lat":-34.5971809945468,"lon":-67.8842899055404},"departamento":{"id":"50105","nombre":"San Rafael"},"funcion":null,"id":"50105150","municipio":{"id":"500105","nombre":"San Rafael"},"nombre":"Monte Comán","provincia":{"id":"50","nombre":"Mendoza"}},{"categoria":"Localidad simple","centroide":{"lat":-34.6703587937035,"lon":-68.3591845637218},"departamento":{"id":"50105","nombre":"San Rafael"},"funcion":null,"id":"50105160","municipio":{"id":"500105","nombre":"San Rafael"},"nombre":"Pobre Diablo","provincia":{"id":"50","nombre":"Mendoza"}},{"categoria":"Localidad simple","centroide":{"lat":-35.530165567926,"lon":-68.0825092985548},"departamento":{"id":"50105","nombre":"San Rafael"},"funcion":null,"id":"50105170","municipio":{"id":"500105","nombre":"San Rafael"},"nombre":"Punta del Agua","provincia":{"id":"50","nombre":"Mendoza"}},{"categoria":"Localidad simple","centroide":{"lat":-34.7043760307316,"lon":-68.3708631047738},"departamento":{"id":"50105","nombre":"San Rafael"},"funcion":null,"id":"50105180","municipio":{"id":"500105","nombre":"San Rafael"},"nombre":"Rama Caída","provincia":{"id":"50","nombre":"Mendoza"}},{"categoria":"Localidad simple","centroide":{"lat":-34.8433149755939,"lon":-67.7674203749059},"departamento":{"id":"50105","nombre":"San Rafael"},"funcion":null,"id":"50105190","municipio":{"id":"500105","nombre":"San Rafael"},"nombre":"Real del Padre","provincia":{"id":"50","nombre":"Mendoza"}},{"categoria":"Localidad simple","centroide":{"lat":-34.726958284268,"lon":-68.2329031579027},"departamento":{"id":"50105","nombre":"San Rafael"},"funcion":null,"id":"50105200","municipio":{"id":"500105","nombre":"San Rafael"},"nombre":"Salto de las Rosas","provincia":{"id":"50","nombre":"Mendoza"}},{"categoria":"Localidad simple","centroide":{"lat":-34.6138799163454,"lon":-68.3342857455338},"departamento":{"id":"50105","nombre":"San Rafael"},"funcion":"CABECERA_DEPARTAMENTO","id":"50105210","municipio":{"id":"500105","nombre":"San Rafael"},"nombre":"San Rafael","provincia":{"id":"50","nombre":"Mendoza"}},{"categoria":"Localidad simple","centroide":{"lat":-34.5859138924719,"lon":-68.549568221963},"departamento":{"id":"50105","nombre":"San Rafael"},"funcion":null,"id":"50105220","municipio":{"id":"500105","nombre":"San Rafael"},"nombre":"25 de Mayo","provincia":{"id":"50","nombre":"Mendoza"}},{"categoria":"Localidad simple","centroide":{"lat":-34.8345022006919,"lon":-67.9257905889931},"departamento":{"id":"50105","nombre":"San Rafael"},"funcion":null,"id":"50105230","municipio":{"id":"500105","nombre":"San Rafael"},"nombre":"Villa Atuel","provincia":{"id":"50","nombre":"Mendoza"}},{"categoria":"Localidad simple","centroide":{"lat":-34.7605998347691,"lon":-68.0374059028042},"departamento":{"id":"50105","nombre":"San Rafael"},"funcion":null,"id":"50105240","municipio":{"id":"500105","nombre":"San Rafael"},"nombre":"Villa Atuel Norte","provincia":{"id":"50","nombre":"Mendoza"}},{"categoria":"Localidad simple","centroide":{"lat":-33.1912015360595,"lon":-68.2809624398751},"departamento":{"id":"50112","nombre":"Santa Rosa"},"funcion":null,"id":"50112010","municipio":{"id":"500112","nombre":"Santa Rosa"},"nombre":"Barrio 12 de Octubre","provincia":{"id":"50","nombre":"Mendoza"}},{"categoria":"Localidad simple","centroide":{"lat":-33.2425136237648,"lon":-68.1826758332982},"departamento":{"id":"50112","nombre":"Santa Rosa"},"funcion":null,"id":"50112020","municipio":{"id":"500112","nombre":"Santa Rosa"},"nombre":"Barrio María Auxiliadora","provincia":{"id":"50","nombre":"Mendoza"}},{"categoria":"Localidad simple","centroide":{"lat":-33.1297119555186,"lon":-68.2037878560507},"departamento":{"id":"50112","nombre":"Santa Rosa"},"funcion":null,"id":"50112030","municipio":{"id":"500112","nombre":"Santa Rosa"},"nombre":"Barrio Molina Cabrera","provincia":{"id":"50","nombre":"Mendoza"}},{"categoria":"Localidad simple","centroide":{"lat":-33.3499243562079,"lon":-67.9160460628593},"departamento":{"id":"50112","nombre":"Santa Rosa"},"funcion":null,"id":"50112040","municipio":{"id":"500112","nombre":"Santa Rosa"},"nombre":"La Dormida","provincia":{"id":"50","nombre":"Mendoza"}},{"categoria":"Localidad simple","centroide":{"lat":-33.3001058785583,"lon":-68.0532182373692},"departamento":{"id":"50112","nombre":"Santa Rosa"},"funcion":null,"id":"50112050","municipio":{"id":"500112","nombre":"Santa Rosa"},"nombre":"Las Catitas","provincia":{"id":"50","nombre":"Mendoza"}},{"categoria":"Localidad simple","centroide":{"lat":-33.2544227888887,"lon":-68.1567438797332},"departamento":{"id":"50112","nombre":"Santa Rosa"},"funcion":"CABECERA_DEPARTAMENTO","id":"50112060","municipio":{"id":"500112","nombre":"Santa Rosa"},"nombre":"Santa Rosa","provincia":{"id":"50","nombre":"Mendoza"}},{"categoria":"Localidad simple","centroide":{"lat":-33.6339135898779,"lon":-69.1879023870713},"departamento":{"id":"50119","nombre":"Tunuyán"},"funcion":null,"id":"50119010","municipio":{"id":"500119","nombre":"Tunuyán"},"nombre":"Barrio San Cayetano","provincia":{"id":"50","nombre":"Mendoza"}},{"categoria":"Localidad simple","centroide":{"lat":-33.707078744557,"lon":-69.1826331369796},"departamento":{"id":"50119","nombre":"Tunuyán"},"funcion":null,"id":"50119020","municipio":{"id":"500119","nombre":"Tunuyán"},"nombre":"Campo Los Andes","provincia":{"id":"50","nombre":"Mendoza"}},{"categoria":"Localidad simple","centroide":{"lat":-33.6129364669521,"lon":-69.1126485401012},"departamento":{"id":"50119","nombre":"Tunuyán"},"funcion":null,"id":"50119030","municipio":{"id":"500119","nombre":"Tunuyán"},"nombre":"Colonia Las Rosas","provincia":{"id":"50","nombre":"Mendoza"}},{"categoria":"Localidad simple","centroide":{"lat":-33.6005741925646,"lon":-69.3350878551814},"departamento":{"id":"50119","nombre":"Tunuyán"},"funcion":null,"id":"50119040","municipio":{"id":"500119","nombre":"Tunuyán"},"nombre":"El Manzano","provincia":{"id":"50","nombre":"Mendoza"}},{"categoria":"Localidad simple","centroide":{"lat":-33.5952101670008,"lon":-69.1840214848841},"departamento":{"id":"50119","nombre":"Tunuyán"},"funcion":null,"id":"50119050","municipio":{"id":"500119","nombre":"Tunuyán"},"nombre":"Los Sauces","provincia":{"id":"50","nombre":"Mendoza"}},{"categoria":"Localidad simple","centroide":{"lat":-33.5775549686559,"lon":-69.0253759357637},"departamento":{"id":"50119","nombre":"Tunuyán"},"funcion":"CABECERA_DEPARTAMENTO","id":"50119060","municipio":{"id":"500119","nombre":"Tunuyán"},"nombre":"Tunuyán","provincia":{"id":"50","nombre":"Mendoza"}},{"categoria":"Localidad simple","centroide":{"lat":-33.651355463945,"lon":-69.1646922660824},"departamento":{"id":"50119","nombre":"Tunuyán"},"funcion":null,"id":"50119070","municipio":{"id":"500119","nombre":"Tunuyán"},"nombre":"Vista Flores","provincia":{"id":"50","nombre":"Mendoza"}},{"categoria":"Localidad simple","centroide":{"lat":-33.3301032817585,"lon":-69.1359513617454},"departamento":{"id":"50126","nombre":"Tupungato"},"funcion":null,"id":"50126010","municipio":{"id":"500126","nombre":"Tupungato"},"nombre":"Barrio Belgrano Norte","provincia":{"id":"50","nombre":"Mendoza"}},{"categoria":"Localidad simple","centroide":{"lat":-33.4689491349532,"lon":-69.1399451802858},"departamento":{"id":"50126","nombre":"Tupungato"},"funcion":null,"id":"50126020","municipio":{"id":"500126","nombre":"Tupungato"},"nombre":"Cordón del Plata","provincia":{"id":"50","nombre":"Mendoza"}},{"categoria":"Localidad simple","centroide":{"lat":-33.3706550679362,"lon":-69.1923487111206},"departamento":{"id":"50126","nombre":"Tupungato"},"funcion":null,"id":"50126030","municipio":{"id":"500126","nombre":"Tupungato"},"nombre":"El Peral","provincia":{"id":"50","nombre":"Mendoza"}},{"categoria":"Localidad simple","centroide":{"lat":-33.3989500475535,"lon":-69.1057367245591},"departamento":{"id":"50126","nombre":"Tupungato"},"funcion":null,"id":"50126035","municipio":{"id":"500126","nombre":"Tupungato"},"nombre":"El Zampal","provincia":{"id":"50","nombre":"Mendoza"}},{"categoria":"Localidad simple","centroide":{"lat":-33.3688267818118,"lon":-69.1247363670469},"departamento":{"id":"50126","nombre":"Tupungato"},"funcion":null,"id":"50126040","municipio":{"id":"500126","nombre":"Tupungato"},"nombre":"La Arboleda","provincia":{"id":"50","nombre":"Mendoza"}},{"categoria":"Localidad simple","centroide":{"lat":-33.3068450101282,"lon":-69.1645780862147},"departamento":{"id":"50126","nombre":"Tupungato"},"funcion":null,"id":"50126050","municipio":{"id":"500126","nombre":"Tupungato"},"nombre":"San José","provincia":{"id":"50","nombre":"Mendoza"}},{"categoria":"Localidad simple","centroide":{"lat":-33.3715188696073,"lon":-69.1570213305004},"departamento":{"id":"50126","nombre":"Tupungato"},"funcion":"CABECERA_DEPARTAMENTO","id":"50126060","municipio":{"id":"500126","nombre":"Tupungato"},"nombre":"Tupungato","provincia":{"id":"50","nombre":"Mendoza"}}],"parametros":{"max":600,"provincia":["50"]},"total":152}