{"cantidad":60,"inicio":0,"localidades_censales":[{"categoria":"Localidad simple","centroide":{"lat":-39.2395006622098,"lon":-70.9180131491473},"departamento":{"id":"58007","nombre":"Aluminé"},"funcion":"CABECERA_DEPARTAMENTO","id":"58007010","municipio":{"id":"580007","nombre":"Aluminé"},"nombre":"Aluminé","provincia":{"id":"58","nombre":"Neuquén"}},{"categoria":"Localidad simple","centroide":{"lat":-38.9431841513779,"lon":-71.3282934446594},"departamento":{"id":"58007","nombre":"Aluminé"},"funcion":null,"id":"58007015","municipio":{"id":"580252","nombre":"Villa Pehuenia"},"nombre":"Moquehue","provincia":{"id":"58","nombre":"Neuquén"}},{"categoria":"Localidad simple","centroide":{"lat":-38.88385673767,"lon":-71.1721341418285},"departamento":{"id":"58007","nombre":"Aluminé"},"funcion":null,"id":"58007020","municipio":{"id":"580252","nombre":"Villa Pehuenia"},"nombre":"Villa Pehuenia","provincia":{"id":"58","nombre":"Neuquén"}},{"categoria":"Localidad simple","centroide":{"lat":-37.9994791767967,"lon":-68.9231103975687},"departamento":{"id":"58014","nombre":"Añelo"},"funcion":null,"id":"58014005","municipio":{"id":"585014","nombre":"Aguada San Roque"},"nombre":"Aguada San Roque","provincia":{"id":"58","nombre":"Neuquén"}},{"categoria":"Localidad simple","centroide":{"lat":-38.3514440221419,"lon":-68.7919715586172},"departamento":{"id":"58014","nombre":"Añelo"},"funcion":"CABECERA_DEPARTAMENTO","id":"58014010","municipio":{"id":"580014","nombre":"Añelo"},"nombre":"Añelo","provincia":{"id":"58","nombre":"Neuquén"}},{"categoria":"Localidad simple","centroide":{"lat":-38.6257824069657,"lon":-68.2986456816821},"departamento":{"id":"58014","nombre":"Añelo"},"funcion":null,"id":"58014020","municipio":{"id":"580021","nombre":"San Patricio del Chañar"},"nombre":"San Patricio del Chañar","provincia":{"id":"58","nombre":"Neuquén"}},{"categoria":"Localidad simple","centroide":{"lat":-39.5578638822685,"lon":-70.5932894653763},"departamento":{"id":"58021","nombre":"Catán Lil"},"funcion":"CABECERA_DEPARTAMENTO","id":"58021010","municipio":{"id":"580028","nombre":"Las Coloradas"},"nombre":"Las Coloradas","provincia":{"id":"58","nombre":"Neuquén"}},{"categoria":"Localidad simple","centroide":{"lat":-40.0465538638605,"lon":-70.077319578901},"departamento":{"id":"58028","nombre":"Collón Curá"},"funcion":"CABECERA_DEPARTAMENTO","id":"58028010","municipio":{"id":"580035","nombre":"Piedra del Águila"},"nombre":"Piedra del Águila","provincia":{"id":"58","nombre":"Neuquén"}},{"categoria":"Localidad simple","centroide":{"lat":-39.8218007278609,"lon":-70.1028884849475},"departamento":{"id":"58028","nombre":"Collón Curá"},"funcion":null,"id":"58028020","municipio":{"id":"585035","nombre":"Santo Tomás"},"nombre":"Santo Tomás","provincia":{"id":"58","nombre":"Neuquén"}},{"categoria":"Localidad simple","centroide":{"lat":-39.0743997961308,"lon":-68.5703350642529},"departamento":{"id":"58035","nombre":"Confluencia"},"funcion":null,"id":"58035010","municipio":{"id":"580077","nombre":"Senillosa"},"nombre":"Arroyito","provincia":{"id":"58","nombre":"Neuquén"}},{"categoria":"Localidad simple","centroide":{"lat":-38.7543907123239,"lon":-68.1803399743279},"departamento":{"id":"58035","nombre":"Confluencia"},"funcion":null,"id":"58035020","municipio":{"id":"580091","nombre":"Vista Alegre"},"nombre":"Barrio Ruca Luhé","provincia":{"id":"58","nombre":"Neuquén"}},{"categoria":"Localidad simple","centroide":{"lat":-38.8275777081112,"lon":-68.1532191639297},"departamento":{"id":"58035","nombre":"Confluencia"},"funcion":null,"id":"58035030","municipio":{"id":"580042","nombre":"Centenario"},"nombre":"Centenario","provincia":{"id":"58","nombre":"Neuquén"}},{"categoria":"Componente de localidad compuesta","centroide":{"lat":-38.9366016135518,"lon":-69.2413390332884},"departamento":{"id":"58035","nombre":"Confluencia"},"funcion":null,"id":"58035040","municipio":{"id":"580049","nombre":"Cutral Có"},"nombre":"Cutral Có","provincia":{"id":"58","nombre":"Neuquén"}},{"categoria":"Localidad simple","centroide":{"lat":-39.2589786425295,"lon":-68.8268723660918},"departamento":{"id":"58035","nombre":"Confluencia"},"funcion":null,"id":"58035050","municipio":{"id":"580084","nombre":"Villa el Chocón"},"nombre":"El Chocón","provincia":{"id":"58","nombre":"Neuquén"}},{"categoria":"Localidad simple","centroide":{"lat":-38.5383043330689,"lon":-68.557547832041},"departamento":{"id":"58035","nombre":"Confluencia"},"funcion":null,"id":"58035060","municipio":{"id":null,"nombre":null},"nombre":"Mari Menuco","provincia":{"id":"58","nombre":"Neuquén"}},{"categoria":"Componente de localidad compuesta","centroide":{"lat":-38.9492856796033,"lon":-68.0839057621977},"departamento":{"id":"58035","nombre":"Confluencia"},"funcion":"CAPITAL_PROVINCIA","id":"58035070","municipio":{"id":"580056","nombre":"Neuquén"},"nombre":"Neuquén","provincia":{"id":"58","nombre":"Neuquén"}},{"categoria":"Localidad simple","centroide":{"lat":-38.878684024658,"lon":-68.1001707201743},"departamento":{"id":"58035","nombre":"Confluencia"},"funcion":null,"id":"58035080","municipio":{"id":"580042","nombre":"Centenario"},"nombre":"11 de Octubre","provincia":{"id":"58","nombre":"Neuquén"}},{"categoria":"Componente de localidad compuesta","centroide":{"lat":-38.9290709532125,"lon":-69.2021594435231},"departamento":{"id":"58035","nombre":"Confluencia"},"funcion":null,"id":"58035090","municipio":{"id":"580063","nombre":"Plaza Huincul"},"nombre":"Plaza Huincul","provincia":{"id":"58","nombre":"Neuquén"}},{"categoria":"Componente de localidad compuesta","centroide":{"lat":-38.9510561611213,"lon":-68.2478403865049},"departamento":{"id":"58035","nombre":"Confluencia"},"funcion":null,"id":"58035100","municipio":{"id":"580070","nombre":"Plottier"},"nombre":"Plottier","provincia":{"id":"58","nombre":"Neuquén"}},{"categoria":"Localidad simple","centroide":{"lat":-39.0113034801537,"lon":-68.4333833911279},"departamento":{"id":"58035","nombre":"Confluencia"},"funcion":null,"id":"58035110","municipio":{"id":"580077","nombre":"Senillosa"},"nombre":"Senillosa","provincia":{"id":"58","nombre":"Neuquén"}},{"categoria":"Localidad simple","centroide":{"lat":-39.2610101785628,"lon":-68.7842564223565},"departamento":{"id":"58035","nombre":"Confluencia"},"funcion":null,"id":"58035120","municipio":{"id":"580084","nombre":"Villa el Chocón"},"nombre":"Villa El Chocón","provincia":{"id":"58","nombre":"Neuquén"}},{"categoria":"Localidad simple","centroide":{"lat":-38.7277123127679,"lon":-68.1721438862367},"departamento":{"id":"58035","nombre":"Confluencia"},"funcion":null,"id":"58035130","municipio":{"id":"580091","nombre":"Vista Alegre"},"nombre":"Vista Alegre Norte","provincia":{"id":"58","nombre":"Neuquén"}},{"categoria":"Localidad simple","centroide":{"lat":-38.7715537254998,"lon":-68.1369187198489},"departamento":{"id":"58035","nombre":"Confluencia"},"funcion":null,"id":"58035140","municipio":{"id":"580091","nombre":"Vista Alegre"},"nombre":"Vista Alegre Sur","provincia":{"id":"58","nombre":"Neuquén"}},{"categoria":"Localidad simple","centroide":{"lat":-37.3792566593514,"lon":-70.2723772223192},"departamento":{"id":"58042","nombre":"Chos Malal"},"funcion":"CABECERA_DEPARTAMENTO","id":"58042010","municipio":{"id":"580098","nombre":"Chos Malal"},"nombre":"Chos Malal","provincia":{"id":"58","nombre":"Neuquén"}},{"categoria":"Localidad simple","centroide":{"lat":-37.0428490399834,"lon":-70.3347175778926},"departamento":{"id":"58042","nombre":"Chos Malal"},"funcion":null,"id":"58042020","municipio":{"id":"580105","nombre":"Tricao Malal"},"nombre":"Tricao Malal","provincia":{"id":"58","nombre":"Neuquén"}},{"categoria":"Localidad simple","centroide":{"lat":-37.1337365202591,"lon":-70.3969231250344},"departamento":{"id":"58042","nombre":"Chos Malal"},"funcion":null,"id":"58042030","municipio":{"id":"585056","nombre":"Villa Curi Leuvú"},"nombre":"Villa del Curi Leuvú","provincia":{"id":"58","nombre":"Neuquén"}},{"categoria":"Localidad simple","centroide":{"lat":-39.9494720138355,"lon":-71.0703335609136},"departamento":{"id":"58049","nombre":"Huiliches"},"funcion":"CABECERA_DEPARTAMENTO","id":"58049010","municipio":{"id":"580112","nombre":"Junín de los Andes"},"nombre":"Junín de los Andes","provincia":{"id":"58","nombre":"Neuquén"}},{"categoria":"Localidad simple","centroide":{"lat":-40.1537600653137,"lon":-71.3550098619322},"departamento":{"id":"58056","nombre":"Lácar"},"funcion":"CABECERA_DEPARTAMENTO","id":"58056010","municipio":{"id":"580119","nombre":"San Martín de los Andes"},"nombre":"San Martín de los Andes","provincia":{"id":"58","nombre":"Neuquén"}},{"categoria":"Localidad simple","centroide":{"lat":-40.3816875508143,"lon":-71.2616152793248},"departamento":{"id":"58056","nombre":"Lácar"},"funcion":null,"id":"58056020","municipio":{"id":null,"nombre":null},"nombre":"Villa Lago Meliquina","provincia":{"id":"58","nombre":"Neuquén"}},{"categoria":"Localidad simple","centroide":{"lat":-37.929624048638,"lon":-70.0562158162232},"departamento":{"id":"58063","nombre":"Loncopué"},"funcion":null,"id":"58063010","municipio":{"id":"585063","nombre":"Chorriaca"},"nombre":"Chorriaca","provincia":{"id":"58","nombre":"Neuquén"}},{"categoria":"Localidad simple","centroide":{"lat":-38.0699432722928,"lon":-70.6124039046888},"departamento":{"id":"58063","nombre":"Loncopué"},"funcion":"CABECERA_DEPARTAMENTO","id":"58063020","municipio":{"id":"580126","nombre":"Loncopué"},"nombre":"Loncopué","provincia":{"id":"58","nombre":"Neuquén"}},{"categoria":"Localidad simple","centroide":{"lat":-40.7631760692681,"lon":-71.6451967512926},"departamento":{"id":"58070","nombre":"Los Lagos"},"funcion":"CABECERA_DEPARTAMENTO","id":"58070010","municipio":{"id":"580133","nombre":"Villa la Angostura"},"nombre":"Villa La Angostura","provincia":{"id":"58","nombre":"Neuquén"}},{"categoria":"Localidad simple","centroide":{"lat":-40.6515336234792,"lon":-71.4069733427811},"departamento":{"id":"58070","nombre":"Los Lagos"},"funcion":null,"id":"58070020","municipio":{"id":"585070","nombre":"Villa Traful"},"nombre":"Villa Traful","provincia":{"id":"58","nombre":"Neuquén"}},{"categoria":"Localidad simple","centroide":{"lat":-37.1814100578481,"lon":-70.6690765415839},"departamento":{"id":"58077","nombre":"Minas"},"funcion":"CABECERA_DEPARTAMENTO","id":"58077010","municipio":{"id":"580140","nombre":"Andacollo"},"nombre":"Andacollo","provincia":{"id":"58","nombre":"Neuquén"}},{"categoria":"Localidad simple","centroide":{"lat":-37.162253742004,"lon":-70.6240350766311},"departamento":{"id":"58077","nombre":"Minas"},"funcion":null,"id":"58077020","municipio":{"id":"580147","nombre":"Huinganco"},"nombre":"Huinganco","provincia":{"id":"58","nombre":"Neuquén"}},{"categoria":"Localidad simple","centroide":{"lat":-36.9881343331798,"lon":-70.7487001311443},"departamento":{"id":"58077","nombre":"Minas"},"funcion":null,"id":"58077030","municipio":{"id":"580154","nombre":"Las Ovejas"},"nombre":"Las Ovejas","provincia":{"id":"58","nombre":"Neuquén"}},{"categoria":"Localidad simple","centroide":{"lat":-37.2079272879053,"lon":-70.8208608595818},"departamento":{"id":"58077","nombre":"Minas"},"funcion":null,"id":"58077040","municipio":{"id":"580161","nombre":"Los Miches"},"nombre":"Los Miches","provincia":{"id":"58","nombre":"Neuquén"}},{"categoria":"Localidad simple","centroide":{"lat":-36.7475538529054,"lon":-70.7652790008941},"departamento":{"id":"58077","nombre":"Minas"},"funcion":null,"id":"58077050","municipio":{"id":"585084","nombre":"Manzano Amargo"},"nombre":"Manzano Amargo","provincia":{"id":"58","nombre":"Neuquén"}},{"categoria":"Localidad simple","centroide":{"lat":-36.8575631715293,"lon":-70.6784177984493},"departamento":{"id":"58077","nombre":"Minas"},"funcion":null,"id":"58077060","municipio":{"id":"585091","nombre":"Varvarco - Invernada Vieja"},"nombre":"Varvarco","provincia":{"id":"58","nombre":"Neuquén"}},{"categoria":"Localidad simple","centroide":{"lat":-37.1209838887878,"lon":-70.7687465935033},"departamento":{"id":"58077","nombre":"Minas"},"funcion":null,"id":"58077070","municipio":{"id":"585098","nombre":"Villa del Nahueve"},"nombre":"Villa del Nahueve","provincia":{"id":"58","nombre":"Neuquén"}},{"categoria":"Localidad simple","centroide":{"lat":-37.8741211534774,"lon":-71.0537792468958},"departamento":{"id":"58084","nombre":"Ñorquín"},"funcion":null,"id":"58084010","municipio":{"id":"580168","nombre":"Caviahue-Copahue"},"nombre":"Caviahue","provincia":{"id":"58","nombre":"Neuquén"}},{"categoria":"Localidad simple","centroide":{"lat":-37.8191699254756,"lon":-71.0991107043764},"departamento":{"id":"58084","nombre":"Ñorquín"},"funcion":null,"id":"58084020","municipio":{"id":"580168","nombre":"Caviahue-Copahue"},"nombre":"Copahue","provincia":{"id":"58","nombre":"Neuquén"}},{"categoria":"Localidad simple","centroide":{"lat":-37.4408647694624,"lon":-70.6441818646861},"departamento":{"id":"58084","nombre":"Ñorquín"},"funcion":null,"id":"58084030","municipio":{"id":"580175","nombre":"El Cholar"},"nombre":"El Cholar","provincia":{"id":"58","nombre":"Neuquén"}},{"categoria":"Localidad simple","centroide":{"lat":-37.6415832578483,"lon":-70.5790877358744},"departamento":{"id":"58084","nombre":"Ñorquín"},"funcion":"CABECERA_DEPARTAMENTO","id":"58084040","municipio":{"id":"580182","nombre":"El Huecú"},"nombre":"El Huecú","provincia":{"id":"58","nombre":"Neuquén"}},{"categoria":"Localidad simple","centroide":{"lat":-37.5169103878888,"lon":-70.2503863712688},"departamento":{"id":"58084","nombre":"Ñorquín"},"funcion":null,"id":"58084050","municipio":{"id":null,"nombre":null},"nombre":"Taquimilán","provincia":{"id":"58","nombre":"Neuquén"}},{"categoria":"Localidad simple","centroide":{"lat":-36.8247372962673,"lon":-69.9164782914753},"departamento":{"id":"58091","nombre":"Pehuenches"},"funcion":null,"id":"58091010","municipio":{"id":"580196","nombre":"Barrancas"},"nombre":"Barrancas","provincia":{"id":"58","nombre":"Neuquén"}},{"categoria":"Localidad simple","centroide":{"lat":-37.0507876062807,"lon":-69.873851086363},"departamento":{"id":"58091","nombre":"Pehuenches"},"funcion":"CABECERA_DEPARTAMENTO","id":"58091020","municipio":{"id":"580203","nombre":"Buta Ranquil"},"nombre":"Buta Ranquil","provincia":{"id":"58","nombre":"Neuquén"}},{"categoria":"Localidad simple","centroide":{"lat":-37.5865104880568,"lon":-68.2686075936205},"departamento":{"id":"58091","nombre":"Pehuenches"},"funcion":null,"id":"58091030","municipio":{"id":"585105","nombre":"Octavio Pico"},"nombre":"Octavio Pico","provincia":{"id":"58","nombre":"Neuquén"}},{"categoria":"Localidad simple","centroide":{"lat":-37.3899075901743,"lon":-68.9309943279283},"departamento":{"id":"58091","nombre":"Pehuenches"},"funcion":null,"id":"58091040","municipio":{"id":"580210","nombre":"Rincón de los Sauces"},"nombre":"Rincón de los Sauces","provincia":{"id":"58","nombre":"Neuquén"}},{"categoria":"Localidad simple","centroide":{"lat":-39.4750725824586,"lon":-69.5298228549206},"departamento":{"id":"58098","nombre":"Picún Leufú"},"funcion":null,"id":"58098005","municipio":{"id":"585112","nombre":"El Sauce"},"nombre":"El Sauce","provincia":{"id":"58","nombre":"Neuquén"}},{"categoria":"Localidad simple","centroide":{"lat":-39.3393978445221,"lon":-69.8442147950698},"departamento":{"id":"58098","nombre":"Picún Leufú"},"funcion":null,"id":"58098010","municipio":{"id":"585119","nombre":"Paso Aguerre"},"nombre":"Paso Aguerre","provincia":{"id":"58","nombre":"Neuquén"}},{"categoria":"Localidad simple","centroide":{"lat":-39.5191361709356,"lon":-69.2962673114558},"departamento":{"id":"58098","nombre":"Picún Leufú"},"funcion":"CABECERA_DEPARTAMENTO","id":"58098020","municipio":{"id":"580217","nombre":"Picún Leufú"},"nombre":"Picún Leufú","provincia":{"id":"58","nombre":"Neuquén"}},{"categoria":"Localidad simple","centroide":{"lat":-38.4079798578262,"lon":-70.0276785984599},"departamento":{"id":"58105","nombre":"Picunches"},"funcion":null,"id":"58105010","municipio":{"id":"580224","nombre":"Bajada del Agrio"},"nombre":"Bajada del Agrio","provincia":{"id":"58","nombre":"Neuquén"}},{"categoria":"Localidad simple","centroide":{"lat":-38.5574702395959,"lon":-70.3665560313021},"departamento":{"id":"58105","nombre":"Picunches"},"funcion":null,"id":"58105020","municipio":{"id":"580231","nombre":"Las Lajas"},"nombre":"La Buitrera","provincia":{"id":"58","nombre":"Neuquén"}},{"categoria":"Localidad simple","centroide":{"lat":-38.5292612011937,"lon":-70.3689502898327},"departamento":{"id":"58105","nombre":"Picunches"},"funcion":"CABECERA_DEPARTAMENTO","id":"58105030","municipio":{"id":"580231","nombre":"Las Lajas"},"nombre":"Las Lajas","provincia":{"id":"58","nombre":"Neuquén"}},{"categoria":"Localidad simple","centroide":{"lat":-38.3213178634179,"lon":-69.8143687558623},"departamento":{"id":"58105","nombre":"Picunches"},"funcion":null,"id":"58105040","municipio":{"id":"585126","nombre":"Quili Malal"},"nombre":"Quili Malal","provincia":{"id":"58","nombre":"Neuquén"}},{"categoria":"Localidad simple","centroide":{"lat":-38.8384807985925,"lon":-70.1962106815081},"departamento":{"id":"58112","nombre":"Zapala"},"funcion":null,"id":"58112010","municipio":{"id":"585140","nombre":"Los Catutos"},"nombre":"Los Catutos","provincia":{"id":"58","nombre":"Neuquén"}},{"categoria":"Localidad simple","centroide":{"lat":-38.7616758159372,"lon":-70.0376761954562},"departamento":{"id":"58112","nombre":"Zapala"},"funcion":null,"id":"58112020","municipio":{"id":"580238","nombre":"Mariano Moreno"},"nombre":"Mariano Moreno","provincia":{"id":"58","nombre":"Neuquén"}},{"categoria":"Localidad simple","centroide":{"lat":-38.865500620555,"lon":-69.750265287383},"departamento":{"id":"58112","nombre":"Zapala"},"funcion":null,"id":"58112030","municipio":{"id":"585147","nombre":"Ramón Castro"},"nombre":"Ramón M. Castro","provincia":{"id":"58","nombre":"Neuquén"}},{"categoria":"Localidad simple","centroide":{"lat":-38.8961687323721,"lon":-70.0668545323772},"departamento":{"id":"58112","nombre":"Zapala"},"funcion":"CABECERA_DEPARTAMENTO","id":"58112040","municipio":{"id":"580245","nombre":"Zapala"},"nombre":"Zapala","provincia":{"id":"58","nombre":"Neuquén"}}],"parametros":{"max":600,"provincia":["58"]},"total":60}