{"cantidad":149,"inicio":0,"localidades_censales":[{"categoria":"Localidad simple","centroide":{"lat":-41.043074401021,"lon":-62.8212339732456},"departamento":{"id":"62007","nombre":"Adolfo Alsina"},"funcion":null,"id":"62007020","municipio":{"id":"620014","nombre":"Viedma"},"nombre":"El Cóndor","provincia":{"id":"62","nombre":"Río Negro"}},{"categoria":"Localidad simple","centroide":{"lat":-40.8040464324129,"lon":-63.119258465235},"departamento":{"id":"62007","nombre":"Adolfo Alsina"},"funcion":null,"id":"62007030","municipio":{"id":"620014","nombre":"Viedma"},"nombre":"El Juncal","provincia":{"id":"62","nombre":"Río Negro"}},{"categoria":"Localidad simple","centroide":{"lat":-40.4302951883973,"lon":-63.6719140103256},"departamento":{"id":"62007","nombre":"Adolfo Alsina"},"funcion":null,"id":"62007040","municipio":{"id":"620007","nombre":"Guardia Mitre"},"nombre":"Guardia Mitre","provincia":{"id":"62","nombre":"Río Negro"}},{"categoria":"Localidad simple","centroide":{"lat":-41.1541008885685,"lon":-63.1234800366543},"departamento":{"id":"62007","nombre":"Adolfo Alsina"},"funcion":null,"id":"62007050","municipio":{"id":null,"nombre":null},"nombre":"La Lobería","provincia":{"id":"62","nombre":"Río Negro"}},{"categoria":"Localidad simple","centroide":{"lat":-40.8722977227525,"lon":-62.9146635826372},"departamento":{"id":"62007","nombre":"Adolfo Alsina"},"funcion":null,"id":"62007060","municipio":{"id":null,"nombre":null},"nombre":"Loteo Costa de Río","provincia":{"id":"62","nombre":"Río Negro"}},{"categoria":"Localidad simple","centroide":{"lat":-41.0954235915941,"lon":-63.9092240856567},"departamento":{"id":"62007","nombre":"Adolfo Alsina"},"funcion":null,"id":"62007010","municipio":{"id":null,"nombre":null},"nombre":"Bahía Creek","provincia":{"id":"62","nombre":"Río Negro"}},{"categoria":"Localidad simple","centroide":{"lat":-41.0178488120515,"lon":-64.1403933053127},"departamento":{"id":"62007","nombre":"Adolfo Alsina"},"funcion":null,"id":"62007070","municipio":{"id":null,"nombre":null},"nombre":"Pozo Salado","provincia":{"id":"62","nombre":"Río Negro"}},{"categoria":"Localidad simple","centroide":{"lat":-40.7472509496073,"lon":-63.2646524967149},"departamento":{"id":"62007","nombre":"Adolfo Alsina"},"funcion":null,"id":"62007080","municipio":{"id":"625014","nombre":"San Javier"},"nombre":"San Javier","provincia":{"id":"62","nombre":"Río Negro"}},{"categoria":"Componente de localidad compuesta","centroide":{"lat":-40.8093232712389,"lon":-62.9853203682712},"departamento":{"id":"62007","nombre":"Adolfo Alsina"},"funcion":"CAPITAL_PROVINCIA","id":"62007090","municipio":{"id":"620014","nombre":"Viedma"},"nombre":"Viedma","provincia":{"id":"62","nombre":"Río Negro"}},{"categoria":"Localidad simple","centroide":{"lat":-39.1585373145235,"lon":-66.1856066477135},"departamento":{"id":"62014","nombre":"Avellaneda"},"funcion":null,"id":"62014010","municipio":{"id":"620021","nombre":"Chimpay"},"nombre":"Barrio Unión","provincia":{"id":"62","nombre":"Río Negro"}},{"categoria":"Localidad simple","centroide":{"lat":-39.0881631155042,"lon":-66.520954661381},"departamento":{"id":"62014","nombre":"Avellaneda"},"funcion":null,"id":"62014020","municipio":{"id":null,"nombre":null},"nombre":"Chelforó","provincia":{"id":"62","nombre":"Río Negro"}},{"categoria":"Localidad simple","centroide":{"lat":-39.1651527318617,"lon":-66.1447069274027},"departamento":{"id":"62014","nombre":"Avellaneda"},"funcion":null,"id":"62014030","municipio":{"id":"620021","nombre":"Chimpay"},"nombre":"Chimpay","provincia":{"id":"62","nombre":"Río Negro"}},{"categoria":"Localidad simple","centroide":{"lat":-39.2884543350453,"lon":-65.663280823108},"departamento":{"id":"62014","nombre":"Avellaneda"},"funcion":"CABECERA_DEPARTAMENTO","id":"62014040","municipio":{"id":"620028","nombre":"Choele Choel"},"nombre":"Choele Choel","provincia":{"id":"62","nombre":"Río Negro"}},{"categoria":"Localidad simple","centroide":{"lat":-39.1858299915745,"lon":-65.9563191181265},"departamento":{"id":"62014","nombre":"Avellaneda"},"funcion":null,"id":"62014050","municipio":{"id":"620035","nombre":"Coronel Belisle"},"nombre":"Coronel Belisle","provincia":{"id":"62","nombre":"Río Negro"}},{"categoria":"Localidad simple","centroide":{"lat":-39.2026912901608,"lon":-65.7409172296959},"departamento":{"id":"62014","nombre":"Avellaneda"},"funcion":null,"id":"62014060","municipio":{"id":"620042","nombre":"Darwin"},"nombre":"Darwin","provincia":{"id":"62","nombre":"Río Negro"}},{"categoria":"Localidad simple","centroide":{"lat":-39.4232652920959,"lon":-65.7014504976777},"departamento":{"id":"62014","nombre":"Avellaneda"},"funcion":null,"id":"62014070","municipio":{"id":"620049","nombre":"Lamarque"},"nombre":"Lamarque","provincia":{"id":"62","nombre":"Río Negro"}},{"categoria":"Localidad simple","centroide":{"lat":-39.3088800984468,"lon":-65.7648714193881},"departamento":{"id":"62014","nombre":"Avellaneda"},"funcion":null,"id":"62014080","municipio":{"id":"620056","nombre":"Luis Beltran"},"nombre":"Luis Beltrán","provincia":{"id":"62","nombre":"Río Negro"}},{"categoria":"Localidad simple","centroide":{"lat":-39.4841604573414,"lon":-65.6124600513947},"departamento":{"id":"62014","nombre":"Avellaneda"},"funcion":null,"id":"62014090","municipio":{"id":"620063","nombre":"Pomona"},"nombre":"Pomona","provincia":{"id":"62","nombre":"Río Negro"}},{"categoria":"Localidad simple","centroide":{"lat":-41.1700881080441,"lon":-71.3851119262238},"departamento":{"id":"62021","nombre":"Bariloche"},"funcion":null,"id":"62021005","municipio":{"id":"620077","nombre":"San Carlos de Bariloche"},"nombre":"Arelauquen","provincia":{"id":"62","nombre":"Río Negro"}},{"categoria":"Localidad simple","centroide":{"lat":-41.1814203033089,"lon":-71.3493437707973},"departamento":{"id":"62021","nombre":"Bariloche"},"funcion":null,"id":"62021010","municipio":{"id":"620077","nombre":"San Carlos de Bariloche"},"nombre":"Barrio El Pilar","provincia":{"id":"62","nombre":"Río Negro"}},{"categoria":"Localidad simple","centroide":{"lat":-41.0947497360429,"lon":-71.505527376881},"departamento":{"id":"62021","nombre":"Bariloche"},"funcion":null,"id":"62021020","municipio":{"id":"620077","nombre":"San Carlos de Bariloche"},"nombre":"Colonia Suiza","provincia":{"id":"62","nombre":"Río Negro"}},{"categoria":"Localidad simple","centroide":{"lat":-41.9804859657332,"lon":-71.5336172136647},"departamento":{"id":"62021","nombre":"Bariloche"},"funcion":null,"id":"62021030","municipio":{"id":"620070","nombre":"El Bolson"},"nombre":"El Bolsón","provincia":{"id":"62","nombre":"Río Negro"}},{"categoria":"Localidad simple","centroide":{"lat":-41.6571199223738,"lon":-71.4592776287102},"departamento":{"id":"62021","nombre":"Bariloche"},"funcion":null,"id":"62021040","municipio":{"id":"625028","nombre":"El Manso"},"nombre":"El Foyel","provincia":{"id":"62","nombre":"Río Negro"}},{"categoria":"Localidad simple","centroide":{"lat":-41.8412736734112,"lon":-71.5091292986442},"departamento":{"id":"62021","nombre":"Bariloche"},"funcion":null,"id":"62021047","municipio":{"id":"620070","nombre":"El Bolson"},"nombre":"Mallín Ahogado","provincia":{"id":"62","nombre":"Río Negro"}},{"categoria":"Localidad simple","centroide":{"lat":-41.5822159155763,"lon":-71.5012934002795},"departamento":{"id":"62021","nombre":"Bariloche"},"funcion":null,"id":"62021050","municipio":{"id":"625028","nombre":"El Manso"},"nombre":"Río Villegas","provincia":{"id":"62","nombre":"Río Negro"}},{"categoria":"Localidad simple","centroide":{"lat":-41.1369282850916,"lon":-71.2990645403112},"departamento":{"id":"62021","nombre":"Bariloche"},"funcion":"CABECERA_DEPARTAMENTO","id":"62021060","municipio":{"id":"620077","nombre":"San Carlos de Bariloche"},"nombre":"San Carlos de Bariloche","provincia":{"id":"62","nombre":"Río Negro"}},{"categoria":"Localidad simple","centroide":{"lat":-41.1666351264313,"lon":-71.4375745404969},"departamento":{"id":"62021","nombre":"Bariloche"},"funcion":null,"id":"62021080","municipio":{"id":"620077","nombre":"San Carlos de Bariloche"},"nombre":"Villa Catedral","provincia":{"id":"62","nombre":"Río Negro"}},{"categoria":"Localidad simple","centroide":{"lat":-41.1575793746786,"lon":-71.4131558610974},"departamento":{"id":"62021","nombre":"Bariloche"},"funcion":null,"id":"62021100","municipio":{"id":"620077","nombre":"San Carlos de Bariloche"},"nombre":"Villa Los Coihues","provincia":{"id":"62","nombre":"Río Negro"}},{"categoria":"Localidad simple","centroide":{"lat":-41.3495536441427,"lon":-71.5090416294131},"departamento":{"id":"62021","nombre":"Bariloche"},"funcion":null,"id":"62021110","municipio":{"id":null,"nombre":null},"nombre":"Villa Mascardi","provincia":{"id":"62","nombre":"Río Negro"}},{"categoria":"Localidad simple","centroide":{"lat":-40.1405715071916,"lon":-64.3297427915782},"departamento":{"id":"62028","nombre":"Conesa"},"funcion":null,"id":"62028010","municipio":{"id":"620084","nombre":"Gral. Conesa"},"nombre":"Barrio Colonia Conesa","provincia":{"id":"62","nombre":"Río Negro"}},{"categoria":"Localidad simple","centroide":{"lat":-40.1047354258125,"lon":-64.452961945825},"departamento":{"id":"62028","nombre":"Conesa"},"funcion":"CABECERA_DEPARTAMENTO","id":"62028020","municipio":{"id":"620084","nombre":"Gral. Conesa"},"nombre":"General Conesa","provincia":{"id":"62","nombre":"Río Negro"}},{"categoria":"Localidad simple","centroide":{"lat":-40.05647449244,"lon":-64.4726087632632},"departamento":{"id":"62028","nombre":"Conesa"},"funcion":null,"id":"62028030","municipio":{"id":null,"nombre":null},"nombre":"Barrio Planta Compresora de Gas","provincia":{"id":"62","nombre":"Río Negro"}},{"categoria":"Localidad simple","centroide":{"lat":-39.9787588388031,"lon":-68.8683979876684},"departamento":{"id":"62035","nombre":"El Cuy"},"funcion":null,"id":"62035010","municipio":{"id":"625077","nombre":"Aguada Guzman"},"nombre":"Aguada Guzmán","provincia":{"id":"62","nombre":"Río Negro"}},{"categoria":"Localidad simple","centroide":{"lat":-39.7252943733893,"lon":-68.4939533269128},"departamento":{"id":"62035","nombre":"El Cuy"},"funcion":null,"id":"62035020","municipio":{"id":"620091","nombre":"Allen"},"nombre":"Cerro Policía","provincia":{"id":"62","nombre":"Río Negro"}},{"categoria":"Localidad simple","centroide":{"lat":-39.9230912187031,"lon":-68.3369498427779},"departamento":{"id":"62035","nombre":"El Cuy"},"funcion":"CABECERA_DEPARTAMENTO","id":"62035030","municipio":{"id":"625056","nombre":"El Cuy"},"nombre":"El Cuy","provincia":{"id":"62","nombre":"Río Negro"}},{"categoria":"Localidad simple","centroide":{"lat":-38.9840690690676,"lon":-68.1403501822625},"departamento":{"id":"62035","nombre":"El Cuy"},"funcion":null,"id":"62035040","municipio":{"id":"620133","nombre":"Cipolletti"},"nombre":"Las Perlas","provincia":{"id":"62","nombre":"Río Negro"}},{"categoria":"Localidad simple","centroide":{"lat":-40.4229029710507,"lon":-69.6143877108253},"departamento":{"id":"62035","nombre":"El Cuy"},"funcion":null,"id":"62035050","municipio":{"id":"625070","nombre":"Mencuen"},"nombre":"Mencué","provincia":{"id":"62","nombre":"Río Negro"}},{"categoria":"Localidad simple","centroide":{"lat":-39.8282845926545,"lon":-69.5089726874799},"departamento":{"id":"62035","nombre":"El Cuy"},"funcion":null,"id":"62035060","municipio":{"id":"625098","nombre":"Naupa Huen"},"nombre":"Naupa Huen","provincia":{"id":"62","nombre":"Río Negro"}},{"categoria":"Componente de localidad compuesta","centroide":{"lat":-39.1153330396607,"lon":-67.6264974744394},"departamento":{"id":"62035","nombre":"El Cuy"},"funcion":null,"id":"62035070","municipio":{"id":"620161","nombre":"Gral. Roca"},"nombre":"Paso Córdova","provincia":{"id":"62","nombre":"Río Negro"}},{"categoria":"Localidad simple","centroide":{"lat":-39.1404827453952,"lon":-66.7285641693515},"departamento":{"id":"62035","nombre":"El Cuy"},"funcion":null,"id":"62035080","municipio":{"id":"625112","nombre":"Valle Azul"},"nombre":"Valle Azul","provincia":{"id":"62","nombre":"Río Negro"}},{"categoria":"Localidad simple","centroide":{"lat":-38.9795106570689,"lon":-67.8280213981609},"departamento":{"id":"62042","nombre":"General Roca"},"funcion":null,"id":"62042010","municipio":{"id":"620091","nombre":"Allen"},"nombre":"Allen","provincia":{"id":"62","nombre":"Río Negro"}},{"categoria":"Localidad simple","centroide":{"lat":-38.7513229744845,"lon":-68.0085536061591},"departamento":{"id":"62042","nombre":"General Roca"},"funcion":null,"id":"62042020","municipio":{"id":null,"nombre":null},"nombre":"Paraje Arroyón (Bajo San Cayetano)","provincia":{"id":"62","nombre":"Río Negro"}},{"categoria":"Localidad simple","centroide":{"lat":-38.7246633358539,"lon":-68.1580560913419},"departamento":{"id":"62042","nombre":"General Roca"},"funcion":null,"id":"62042030","municipio":{"id":"620140","nombre":"Contralmirante Cordero"},"nombre":"Barda del Medio","provincia":{"id":"62","nombre":"Río Negro"}},{"categoria":"Localidad simple","centroide":{"lat":-39.0309641335839,"lon":-67.7863228650653},"departamento":{"id":"62042","nombre":"General Roca"},"funcion":null,"id":"62042040","municipio":{"id":"620091","nombre":"Allen"},"nombre":"Barrio Blanco","provincia":{"id":"62","nombre":"Río Negro"}},{"categoria":"Localidad simple","centroide":{"lat":-39.0230092190233,"lon":-67.8005036132986},"departamento":{"id":"62042","nombre":"General Roca"},"funcion":null,"id":"62042050","municipio":{"id":"620091","nombre":"Allen"},"nombre":"Barrio Calle Ciega Nº 10","provincia":{"id":"62","nombre":"Río Negro"}},{"categoria":"Localidad simple","centroide":{"lat":-39.0430891464152,"lon":-67.7520658420811},"departamento":{"id":"62042","nombre":"General Roca"},"funcion":null,"id":"62042060","municipio":{"id":"620091","nombre":"Allen"},"nombre":"Barrio Calle Ciega Nº 6","provincia":{"id":"62","nombre":"Río Negro"}},{"categoria":"Localidad simple","centroide":{"lat":-39.0682963331395,"lon":-67.6389236900117},"departamento":{"id":"62042","nombre":"General Roca"},"funcion":null,"id":"62042070","municipio":{"id":"620161","nombre":"Gral. Roca"},"nombre":"Barrio Canale","provincia":{"id":"62","nombre":"Río Negro"}},{"categoria":"Localidad simple","centroide":{"lat":-39.0516494451284,"lon":-67.6345853523327},"departamento":{"id":"62042","nombre":"General Roca"},"funcion":null,"id":"62042080","municipio":{"id":"620161","nombre":"Gral. Roca"},"nombre":"Barrio Chacra Monte","provincia":{"id":"62","nombre":"Río Negro"}},{"categoria":"Localidad simple","centroide":{"lat":-39.0418587269805,"lon":-67.8075970544366},"departamento":{"id":"62042","nombre":"General Roca"},"funcion":null,"id":"62042090","municipio":{"id":"620091","nombre":"Allen"},"nombre":"Barrio Costa Este","provincia":{"id":"62","nombre":"Río Negro"}},{"categoria":"Localidad simple","centroide":{"lat":-38.9435967131876,"lon":-67.9095130600984},"departamento":{"id":"62042","nombre":"General Roca"},"funcion":null,"id":"62042100","municipio":{"id":"620154","nombre":"Gral. Fdez. Oro"},"nombre":"Barrio Costa Linda","provincia":{"id":"62","nombre":"Río Negro"}},{"categoria":"Localidad simple","centroide":{"lat":-39.0280740237159,"lon":-67.8406950461567},"departamento":{"id":"62042","nombre":"General Roca"},"funcion":null,"id":"62042110","municipio":{"id":"620091","nombre":"Allen"},"nombre":"Barrio Costa Oeste","provincia":{"id":"62","nombre":"Río Negro"}},{"categoria":"Localidad simple","centroide":{"lat":-37.688801948065,"lon":-67.8695487107459},"departamento":{"id":"62042","nombre":"General Roca"},"funcion":null,"id":"62042115","municipio":{"id":"625105","nombre":"Peñas Blancas"},"nombre":"Barrio Destacamento","provincia":{"id":"62","nombre":"Río Negro"}},{"categoria":"Localidad simple","centroide":{"lat":-38.67192317216,"lon":-68.2343296924898},"departamento":{"id":"62042","nombre":"General Roca"},"funcion":null,"id":"62042120","municipio":{"id":"620098","nombre":"Campo Grande"},"nombre":"Barrio El Labrador","provincia":{"id":"62","nombre":"Río Negro"}},{"categoria":"Localidad simple","centroide":{"lat":-38.9965483470472,"lon":-67.7600066651023},"departamento":{"id":"62042","nombre":"General Roca"},"funcion":null,"id":"62042130","municipio":{"id":"620091","nombre":"Allen"},"nombre":"Barrio El Maruchito","provincia":{"id":"62","nombre":"Río Negro"}},{"categoria":"Localidad simple","centroide":{"lat":-39.0639270176593,"lon":-67.5120162799717},"departamento":{"id":"62042","nombre":"General Roca"},"funcion":null,"id":"62042140","municipio":{"id":"620161","nombre":"Gral. Roca"},"nombre":"Barrio El Petróleo","provincia":{"id":"62","nombre":"Río Negro"}},{"categoria":"Localidad simple","centroide":{"lat":-39.001652251504,"lon":-67.8506842254546},"departamento":{"id":"62042","nombre":"General Roca"},"funcion":null,"id":"62042143","municipio":{"id":"620091","nombre":"Allen"},"nombre":"Barrio Emergente","provincia":{"id":"62","nombre":"Río Negro"}},{"categoria":"Localidad simple","centroide":{"lat":-39.0531680628778,"lon":-67.472967428649},"departamento":{"id":"62042","nombre":"General Roca"},"funcion":null,"id":"62042147","municipio":{"id":"620112","nombre":"Cervantes"},"nombre":"Barrio Fátima","provincia":{"id":"62","nombre":"Río Negro"}},{"categoria":"Localidad simple","centroide":{"lat":-39.071916321907,"lon":-67.7129100460388},"departamento":{"id":"62042","nombre":"General Roca"},"funcion":null,"id":"62042150","municipio":{"id":"620161","nombre":"Gral. Roca"},"nombre":"Barrio Frontera","provincia":{"id":"62","nombre":"Río Negro"}},{"categoria":"Localidad simple","centroide":{"lat":-39.0416838101557,"lon":-67.7340081423714},"departamento":{"id":"62042","nombre":"General Roca"},"funcion":null,"id":"62042160","municipio":{"id":"620091","nombre":"Allen"},"nombre":"Barrio Guerrico","provincia":{"id":"62","nombre":"Río Negro"}},{"categoria":"Localidad simple","centroide":{"lat":-38.9966443708843,"lon":-67.9181463726224},"departamento":{"id":"62042","nombre":"General Roca"},"funcion":null,"id":"62042170","municipio":{"id":"620154","nombre":"Gral. Fdez. Oro"},"nombre":"Barrio Isla 10","provincia":{"id":"62","nombre":"Río Negro"}},{"categoria":"Localidad simple","centroide":{"lat":-39.0494648024568,"lon":-67.217793659392},"departamento":{"id":"62042","nombre":"General Roca"},"funcion":null,"id":"62042180","municipio":{"id":"620168","nombre":"Ingeniero Huergo"},"nombre":"Barrio La Barda","provincia":{"id":"62","nombre":"Río Negro"}},{"categoria":"Localidad simple","centroide":{"lat":-39.0753070627553,"lon":-67.5392261916358},"departamento":{"id":"62042","nombre":"General Roca"},"funcion":null,"id":"62042190","municipio":{"id":"620161","nombre":"Gral. Roca"},"nombre":"Barrio La Costa","provincia":{"id":"62","nombre":"Río Negro"}},{"categoria":"Localidad simple","centroide":{"lat":-39.0923450479727,"lon":-67.2007281871129},"departamento":{"id":"62042","nombre":"General Roca"},"funcion":null,"id":"62042200","municipio":{"id":"620168","nombre":"Ingeniero Huergo"},"nombre":"Barrio La Costa","provincia":{"id":"62","nombre":"Río Negro"}},{"categoria":"Localidad simple","centroide":{"lat":-39.0331815789057,"lon":-67.3862477660724},"departamento":{"id":"62042","nombre":"General Roca"},"funcion":null,"id":"62042210","municipio":{"id":"620112","nombre":"Cervantes"},"nombre":"Barrio La Defensa","provincia":{"id":"62","nombre":"Río Negro"}},{"categoria":"Localidad simple","centroide":{"lat":-39.0370774236916,"lon":-67.7820594526763},"departamento":{"id":"62042","nombre":"General Roca"},"funcion":null,"id":"62042215","municipio":{"id":"620091","nombre":"Allen"},"nombre":"Barrio La Herradura","provincia":{"id":"62","nombre":"Río Negro"}},{"categoria":"Localidad simple","centroide":{"lat":-39.0772588097086,"lon":-67.5794991279564},"departamento":{"id":"62042","nombre":"General Roca"},"funcion":null,"id":"62042230","municipio":{"id":"620161","nombre":"Gral. Roca"},"nombre":"Barrio La Ribera - Barrio APYCAR","provincia":{"id":"62","nombre":"Río Negro"}},{"categoria":"Localidad simple","centroide":{"lat":-39.0298112121202,"lon":-67.5009911848666},"departamento":{"id":"62042","nombre":"General Roca"},"funcion":null,"id":"62042240","municipio":{"id":"620161","nombre":"Gral. Roca"},"nombre":"Puente Cero","provincia":{"id":"62","nombre":"Río Negro"}},{"categoria":"Localidad simple","centroide":{"lat":-39.0514047890722,"lon":-67.3468986066244},"departamento":{"id":"62042","nombre":"General Roca"},"funcion":null,"id":"62042245","municipio":{"id":"620175","nombre":"Mainque"},"nombre":"Barrio Luisillo","provincia":{"id":"62","nombre":"Río Negro"}},{"categoria":"Localidad simple","centroide":{"lat":-39.0827873095255,"lon":-67.6523985545637},"departamento":{"id":"62042","nombre":"General Roca"},"funcion":null,"id":"62042250","municipio":{"id":"620161","nombre":"Gral. Roca"},"nombre":"Barrio Mar del Plata","provincia":{"id":"62","nombre":"Río Negro"}},{"categoria":"Localidad simple","centroide":{"lat":-38.9901442627179,"lon":-67.9613095600255},"departamento":{"id":"62042","nombre":"General Roca"},"funcion":null,"id":"62042260","municipio":{"id":"620133","nombre":"Cipolletti"},"nombre":"Barrio María Elvira","provincia":{"id":"62","nombre":"Río Negro"}},{"categoria":"Localidad simple","centroide":{"lat":-39.1306874014844,"lon":-66.8941649716277},"departamento":{"id":"62042","nombre":"General Roca"},"funcion":null,"id":"62042265","municipio":{"id":"620119","nombre":"Chichinales"},"nombre":"Barrio Moño Azul","provincia":{"id":"62","nombre":"Río Negro"}},{"categoria":"Localidad simple","centroide":{"lat":-39.0907183953718,"lon":-67.5898603467619},"departamento":{"id":"62042","nombre":"General Roca"},"funcion":null,"id":"62042270","municipio":{"id":"620161","nombre":"Gral. Roca"},"nombre":"Barrio Mosconi","provincia":{"id":"62","nombre":"Río Negro"}},{"categoria":"Componente de localidad compuesta","centroide":{"lat":-38.8637279259728,"lon":-68.0231905596235},"departamento":{"id":"62042","nombre":"General Roca"},"funcion":null,"id":"62042280","municipio":{"id":"620133","nombre":"Cipolletti"},"nombre":"Barrio Norte","provincia":{"id":"62","nombre":"Río Negro"}},{"categoria":"Localidad simple","centroide":{"lat":-37.6748275939008,"lon":-67.873652130682},"departamento":{"id":"62042","nombre":"General Roca"},"funcion":null,"id":"62042297","municipio":{"id":"625105","nombre":"Peñas Blancas"},"nombre":"Barrio Pinar","provincia":{"id":"62","nombre":"Río Negro"}},{"categoria":"Localidad simple","centroide":{"lat":-39.0430283937958,"lon":-67.4642040039168},"departamento":{"id":"62042","nombre":"General Roca"},"funcion":null,"id":"62042310","municipio":{"id":"620112","nombre":"Cervantes"},"nombre":"Barrio Porvenir","provincia":{"id":"62","nombre":"Río Negro"}},{"categoria":"Localidad simple","centroide":{"lat":-38.9565610907804,"lon":-67.9463561564044},"departamento":{"id":"62042","nombre":"General Roca"},"funcion":null,"id":"62042330","municipio":{"id":"620133","nombre":"Cipolletti"},"nombre":"Barrio Puente 83","provincia":{"id":"62","nombre":"Río Negro"}},{"categoria":"Localidad simple","centroide":{"lat":-39.0282517975929,"lon":-67.2984549123711},"departamento":{"id":"62042","nombre":"General Roca"},"funcion":null,"id":"62042335","municipio":{"id":"620175","nombre":"Mainque"},"nombre":"Barrio Santa Lucia","provincia":{"id":"62","nombre":"Río Negro"}},{"categoria":"Localidad simple","centroide":{"lat":-39.1260785745275,"lon":-67.1035165050666},"departamento":{"id":"62042","nombre":"General Roca"},"funcion":null,"id":"62042340","municipio":{"id":"620182","nombre":"Villa Regina"},"nombre":"Barrio Santa Rita","provincia":{"id":"62","nombre":"Río Negro"}},{"categoria":"Localidad simple","centroide":{"lat":-38.979186876102,"lon":-67.941976373184},"departamento":{"id":"62042","nombre":"General Roca"},"funcion":null,"id":"62042350","municipio":{"id":"620154","nombre":"Gral. Fdez. Oro"},"nombre":"Barrio Unión","provincia":{"id":"62","nombre":"Río Negro"}},{"categoria":"Localidad simple","centroide":{"lat":-37.881528862589,"lon":-67.7945569701758},"departamento":{"id":"62042","nombre":"General Roca"},"funcion":null,"id":"62042360","municipio":{"id":"620105","nombre":"Catriel"},"nombre":"Catriel","provincia":{"id":"62","nombre":"Río Negro"}},{"categoria":"Localidad simple","centroide":{"lat":-39.0515785846632,"lon":-67.3930560378065},"departamento":{"id":"62042","nombre":"General Roca"},"funcion":null,"id":"62042370","municipio":{"id":"620112","nombre":"Cervantes"},"nombre":"Cervantes","provincia":{"id":"62","nombre":"Río Negro"}},{"categoria":"Localidad simple","centroide":{"lat":-39.1148814347412,"lon":-66.9425150029993},"departamento":{"id":"62042","nombre":"General Roca"},"funcion":null,"id":"62042380","municipio":{"id":"620119","nombre":"Chichinales"},"nombre":"Chichinales","provincia":{"id":"62","nombre":"Río Negro"}},{"categoria":"Localidad simple","centroide":{"lat":-38.8275620197176,"lon":-68.06609620552},"departamento":{"id":"62042","nombre":"General Roca"},"funcion":null,"id":"62042390","municipio":{"id":"620126","nombre":"Cinco Saltos"},"nombre":"Cinco Saltos","provincia":{"id":"62","nombre":"Río Negro"}},{"categoria":"Localidad simple","centroide":{"lat":-38.924558895075,"lon":-68.035384250397},"departamento":{"id":"62042","nombre":"General Roca"},"funcion":null,"id":"62042400","municipio":{"id":"620133","nombre":"Cipolletti"},"nombre":"Cipolletti","provincia":{"id":"62","nombre":"Río Negro"}},{"categoria":"Localidad simple","centroide":{"lat":-38.7570062611988,"lon":-68.0994972104866},"departamento":{"id":"62042","nombre":"General Roca"},"funcion":null,"id":"62042410","municipio":{"id":"620140","nombre":"Contralmirante Cordero"},"nombre":"Contralmirante Cordero","provincia":{"id":"62","nombre":"Río Negro"}},{"categoria":"Localidad simple","centroide":{"lat":-38.8871754648156,"lon":-68.0068433988189},"departamento":{"id":"62042","nombre":"General Roca"},"funcion":null,"id":"62042420","municipio":{"id":"620133","nombre":"Cipolletti"},"nombre":"Ferri","provincia":{"id":"62","nombre":"Río Negro"}},{"categoria":"Localidad simple","centroide":{"lat":-39.0795501222919,"lon":-67.1575508259755},"departamento":{"id":"62042","nombre":"General Roca"},"funcion":null,"id":"62042430","municipio":{"id":"620147","nombre":"Gral. Enrique Godoy"},"nombre":"General Enrique Godoy","provincia":{"id":"62","nombre":"Río Negro"}},{"categoria":"Localidad simple","centroide":{"lat":-38.95436020459,"lon":-67.9251089784988},"departamento":{"id":"62042","nombre":"General Roca"},"funcion":null,"id":"62042440","municipio":{"id":"620154","nombre":"Gral. Fdez. Oro"},"nombre":"General Fernández Oro","provincia":{"id":"62","nombre":"Río Negro"}},{"categoria":"Localidad simple","centroide":{"lat":-39.0267025182087,"lon":-67.5748540962425},"departamento":{"id":"62042","nombre":"General Roca"},"funcion":"CABECERA_DEPARTAMENTO","id":"62042450","municipio":{"id":"620161","nombre":"Gral. Roca"},"nombre":"General Roca","provincia":{"id":"62","nombre":"Río Negro"}},{"categoria":"Localidad simple","centroide":{"lat":-39.0711757468082,"lon":-67.2328876350348},"departamento":{"id":"62042","nombre":"General Roca"},"funcion":null,"id":"62042460","municipio":{"id":"620168","nombre":"Ingeniero Huergo"},"nombre":"Ingeniero Luis A. Huergo","provincia":{"id":"62","nombre":"Río Negro"}},{"categoria":"Localidad simple","centroide":{"lat":-39.1114281023989,"lon":-66.9939096262054},"departamento":{"id":"62042","nombre":"General Roca"},"funcion":null,"id":"62042470","municipio":{"id":"620119","nombre":"Chichinales"},"nombre":"Ingeniero Otto Krause","provincia":{"id":"62","nombre":"Río Negro"}},{"categoria":"Localidad simple","centroide":{"lat":-39.0637561999382,"lon":-67.3042811813575},"departamento":{"id":"62042","nombre":"General Roca"},"funcion":null,"id":"62042480","municipio":{"id":"620175","nombre":"Mainque"},"nombre":"Mainqué","provincia":{"id":"62","nombre":"Río Negro"}},{"categoria":"Componente de localidad compuesta","centroide":{"lat":-39.107750409664,"lon":-67.6277074998828},"departamento":{"id":"62042","nombre":"General Roca"},"funcion":null,"id":"62042490","municipio":{"id":"620161","nombre":"Gral. Roca"},"nombre":"Paso Córdova","provincia":{"id":"62","nombre":"Río Negro"}},{"categoria":"Localidad simple","centroide":{"lat":-38.7010665100453,"lon":-68.0277179698785},"departamento":{"id":"62042","nombre":"General Roca"},"funcion":null,"id":"62042500","municipio":{"id":null,"nombre":null},"nombre":"Península Ruca Co","provincia":{"id":"62","nombre":"Río Negro"}},{"categoria":"Localidad simple","centroide":{"lat":-38.6856409614896,"lon":-68.1580780282182},"departamento":{"id":"62042","nombre":"General Roca"},"funcion":null,"id":"62042520","municipio":{"id":"620098","nombre":"Campo Grande"},"nombre":"Sargento Vidal","provincia":{"id":"62","nombre":"Río Negro"}},{"categoria":"Localidad simple","centroide":{"lat":-39.1283463654662,"lon":-67.0481125141998},"departamento":{"id":"62042","nombre":"General Roca"},"funcion":null,"id":"62042530","municipio":{"id":"620182","nombre":"Villa Regina"},"nombre":"Villa Alberdi","provincia":{"id":"62","nombre":"Río Negro"}},{"categoria":"Localidad simple","centroide":{"lat":-39.1258079817539,"lon":-66.9976300412367},"departamento":{"id":"62042","nombre":"General Roca"},"funcion":null,"id":"62042540","municipio":{"id":"620119","nombre":"Chichinales"},"nombre":"Villa del Parque","provincia":{"id":"62","nombre":"Río Negro"}},{"categoria":"Localidad simple","centroide":{"lat":-38.6806041543676,"lon":-68.2157180851266},"departamento":{"id":"62042","nombre":"General Roca"},"funcion":null,"id":"62042550","municipio":{"id":"620098","nombre":"Campo Grande"},"nombre":"Villa Manzano","provincia":{"id":"62","nombre":"Río Negro"}},{"categoria":"Localidad simple","centroide":{"lat":-39.0962966627004,"lon":-67.0828092630939},"departamento":{"id":"62042","nombre":"General Roca"},"funcion":null,"id":"62042560","municipio":{"id":"620182","nombre":"Villa Regina"},"nombre":"Villa Regina","provincia":{"id":"62","nombre":"Río Negro"}},{"categoria":"Localidad simple","centroide":{"lat":-38.7064851078187,"lon":-68.1737455217996},"departamento":{"id":"62042","nombre":"General Roca"},"funcion":null,"id":"62042570","municipio":{"id":"620098","nombre":"Campo Grande"},"nombre":"Villa San Isidro","provincia":{"id":"62","nombre":"Río Negro"}},{"categoria":"Localidad simple","centroide":{"lat":-41.0632755118249,"lon":-67.5965600975269},"departamento":{"id":"62049","nombre":"9 de julio"},"funcion":null,"id":"62049010","municipio":{"id":"625210","nombre":"Comico"},"nombre":"Comicó","provincia":{"id":"62","nombre":"Río Negro"}},{"categoria":"Localidad simple","centroide":{"lat":-41.8812021704501,"lon":-66.9407404270844},"departamento":{"id":"62049","nombre":"9 de julio"},"funcion":null,"id":"62049020","municipio":{"id":"625161","nombre":"Cona Niyeu"},"nombre":"Cona Niyeu","provincia":{"id":"62","nombre":"Río Negro"}},{"categoria":"Localidad simple","centroide":{"lat":-40.5085400133825,"lon":-67.2619207148835},"departamento":{"id":"62049","nombre":"9 de julio"},"funcion":null,"id":"62049030","municipio":{"id":"620189","nombre":"Ministro Ramos Mexia"},"nombre":"Ministro Ramos Mexía","provincia":{"id":"62","nombre":"Río Negro"}},{"categoria":"Localidad simple","centroide":{"lat":-41.3591519247092,"lon":-67.9314763422669},"departamento":{"id":"62049","nombre":"9 de julio"},"funcion":null,"id":"62049040","municipio":{"id":"625259","nombre":"Prahuaniyeu"},"nombre":"Prahuaniyeu","provincia":{"id":"62","nombre":"Río Negro"}},{"categoria":"Localidad simple","centroide":{"lat":-40.5850993527615,"lon":-67.7555445864448},"departamento":{"id":"62049","nombre":"9 de julio"},"funcion":"CABECERA_DEPARTAMENTO","id":"62049050","municipio":{"id":"620196","nombre":"Sierra Colorada"},"nombre":"Sierra Colorada","provincia":{"id":"62","nombre":"Río Negro"}},{"categoria":"Localidad simple","centroide":{"lat":-40.8508277432449,"lon":-66.9816846927042},"departamento":{"id":"62049","nombre":"9 de julio"},"funcion":null,"id":"62049060","municipio":{"id":"625119","nombre":"Rincon de Treneta"},"nombre":"Treneta","provincia":{"id":"62","nombre":"Río Negro"}},{"categoria":"Localidad simple","centroide":{"lat":-40.8429274507991,"lon":-67.1922500656909},"departamento":{"id":"62049","nombre":"9 de julio"},"funcion":null,"id":"62049070","municipio":{"id":null,"nombre":null},"nombre":"Yaminué","provincia":{"id":"62","nombre":"Río Negro"}},{"categoria":"Localidad simple","centroide":{"lat":-41.4504057812872,"lon":-70.6827894626766},"departamento":{"id":"62056","nombre":"Ñorquinco"},"funcion":null,"id":"62056010","municipio":{"id":"620224","nombre":"Pilcaniyeu"},"nombre":"Las Bayas","provincia":{"id":"62","nombre":"Río Negro"}},{"categoria":"Localidad simple","centroide":{"lat":-41.7698416427745,"lon":-70.1708632216436},"departamento":{"id":"62056","nombre":"Ñorquinco"},"funcion":null,"id":"62056020","municipio":{"id":"625238","nombre":"Mamuel Choique"},"nombre":"Mamuel Choique","provincia":{"id":"62","nombre":"Río Negro"}},{"categoria":"Localidad simple","centroide":{"lat":-41.843448611748,"lon":-70.8943932149944},"departamento":{"id":"62056","nombre":"Ñorquinco"},"funcion":"CABECERA_DEPARTAMENTO","id":"62056030","municipio":{"id":"620203","nombre":"Ñorquinco"},"nombre":"Ñorquincó","provincia":{"id":"62","nombre":"Río Negro"}},{"categoria":"Localidad simple","centroide":{"lat":-41.534892227381,"lon":-69.854645970072},"departamento":{"id":"62056","nombre":"Ñorquinco"},"funcion":null,"id":"62056040","municipio":{"id":"625245","nombre":"Ojos de Agua"},"nombre":"Ojos de Agua","provincia":{"id":"62","nombre":"Río Negro"}},{"categoria":"Localidad simple","centroide":{"lat":-41.7167227835394,"lon":-70.4710839014635},"departamento":{"id":"62056","nombre":"Ñorquinco"},"funcion":null,"id":"62056050","municipio":{"id":"625266","nombre":"Rio Chico"},"nombre":"Río Chico","provincia":{"id":"62","nombre":"Río Negro"}},{"categoria":"Localidad simple","centroide":{"lat":-39.041876855319,"lon":-63.9985907357656},"departamento":{"id":"62063","nombre":"Pichi Mahuida"},"funcion":null,"id":"62063005","municipio":{"id":"620210","nombre":"Rìo Colorado"},"nombre":"Barrio Esperanza","provincia":{"id":"62","nombre":"Río Negro"}},{"categoria":"Localidad simple","centroide":{"lat":-39.0361229259361,"lon":-64.0139390564756},"departamento":{"id":"62063","nombre":"Pichi Mahuida"},"funcion":null,"id":"62063010","municipio":{"id":"620210","nombre":"Rìo Colorado"},"nombre":"Colonia Juliá y Echarren","provincia":{"id":"62","nombre":"Río Negro"}},{"categoria":"Localidad simple","centroide":{"lat":-39.0125652171478,"lon":-64.0650447267437},"departamento":{"id":"62063","nombre":"Pichi Mahuida"},"funcion":null,"id":"62063013","municipio":{"id":"620210","nombre":"Rìo Colorado"},"nombre":"Juventud Unida","provincia":{"id":"62","nombre":"Río Negro"}},{"categoria":"Localidad simple","centroide":{"lat":-38.8296136177487,"lon":-64.9374198062825},"departamento":{"id":"62063","nombre":"Pichi Mahuida"},"funcion":null,"id":"62063017","municipio":{"id":"420189","nombre":"La Adela"},"nombre":"Pichi Mahuida","provincia":{"id":"62","nombre":"Río Negro"}},{"categoria":"Componente de localidad compuesta","centroide":{"lat":-38.9914136078743,"lon":-64.0874682295519},"departamento":{"id":"62063","nombre":"Pichi Mahuida"},"funcion":"CABECERA_DEPARTAMENTO","id":"62063020","municipio":{"id":"620210","nombre":"Rìo Colorado"},"nombre":"Río Colorado","provincia":{"id":"62","nombre":"Río Negro"}},{"categoria":"Localidad simple","centroide":{"lat":-38.8229789232812,"lon":-64.8182778708068},"departamento":{"id":"62063","nombre":"Pichi Mahuida"},"funcion":null,"id":"62063060","municipio":{"id":null,"nombre":null},"nombre":"Salto Andersen","provincia":{"id":"62","nombre":"Río Negro"}},{"categoria":"Localidad simple","centroide":{"lat":-40.8843058831975,"lon":-70.0229634453504},"departamento":{"id":"62070","nombre":"Pilcaniyeu"},"funcion":null,"id":"62070005","municipio":{"id":null,"nombre":null},"nombre":"Cañadón Chileno","provincia":{"id":"62","nombre":"Río Negro"}},{"categoria":"Localidad simple","centroide":{"lat":-41.0298746753183,"lon":-70.269980649853},"departamento":{"id":"62070","nombre":"Pilcaniyeu"},"funcion":null,"id":"62070010","municipio":{"id":"620217","nombre":"Comallo"},"nombre":"Comallo","provincia":{"id":"62","nombre":"Río Negro"}},{"categoria":"Localidad simple","centroide":{"lat":-41.0691934226158,"lon":-71.16219332616},"departamento":{"id":"62070","nombre":"Pilcaniyeu"},"funcion":null,"id":"62070020","municipio":{"id":"620273","nombre":"Dina Huapi"},"nombre":"Dina Huapi","provincia":{"id":"62","nombre":"Río Negro"}},{"categoria":"Localidad simple","centroide":{"lat":-40.7925954846977,"lon":-69.8810399581108},"departamento":{"id":"62070","nombre":"Pilcaniyeu"},"funcion":null,"id":"62070030","municipio":{"id":"625231","nombre":"Laguna Blanca"},"nombre":"Laguna Blanca","provincia":{"id":"62","nombre":"Río Negro"}},{"categoria":"Localidad simple","centroide":{"lat":-41.0885592834836,"lon":-71.1369133751581},"departamento":{"id":"62070","nombre":"Pilcaniyeu"},"funcion":null,"id":"62070040","municipio":{"id":"620273","nombre":"Dina Huapi"},"nombre":"Ñirihuau","provincia":{"id":"62","nombre":"Río Negro"}},{"categoria":"Localidad simple","centroide":{"lat":-41.1252901833754,"lon":-70.7216943906912},"departamento":{"id":"62070","nombre":"Pilcaniyeu"},"funcion":"CABECERA_DEPARTAMENTO","id":"62070060","municipio":{"id":"620224","nombre":"Pilcaniyeu"},"nombre":"Pilcaniyeu","provincia":{"id":"62","nombre":"Río Negro"}},{"categoria":"Localidad simple","centroide":{"lat":-40.5448524836234,"lon":-70.0532314661515},"departamento":{"id":"62070","nombre":"Pilcaniyeu"},"funcion":null,"id":"62070070","municipio":{"id":"625140","nombre":"Pilquiniyeu del Limay"},"nombre":"Pilquiniyeu del Limay","provincia":{"id":"62","nombre":"Río Negro"}},{"categoria":"Localidad simple","centroide":{"lat":-40.9239102047089,"lon":-71.0338579770764},"departamento":{"id":"62070","nombre":"Pilcaniyeu"},"funcion":null,"id":"62070080","municipio":{"id":"625042","nombre":"Villa Llanquin"},"nombre":"Villa Llanquín","provincia":{"id":"62","nombre":"Río Negro"}},{"categoria":"Localidad simple","centroide":{"lat":-40.7066025441789,"lon":-65.0030743715644},"departamento":{"id":"62077","nombre":"San Antonio"},"funcion":null,"id":"62077005","municipio":{"id":"620231","nombre":"San Antonio Oeste"},"nombre":"El Empalme","provincia":{"id":"62","nombre":"Río Negro"}},{"categoria":"Localidad simple","centroide":{"lat":-40.806093320236,"lon":-65.0847019757487},"departamento":{"id":"62077","nombre":"San Antonio"},"funcion":null,"id":"62077010","municipio":{"id":null,"nombre":null},"nombre":"Las Grutas","provincia":{"id":"62","nombre":"Río Negro"}},{"categoria":"Localidad simple","centroide":{"lat":-41.6277486729047,"lon":-65.0218925578712},"departamento":{"id":"62077","nombre":"San Antonio"},"funcion":null,"id":"62077020","municipio":{"id":null,"nombre":null},"nombre":"Playas Doradas","provincia":{"id":"62","nombre":"Río Negro"}},{"categoria":"Localidad simple","centroide":{"lat":-40.8008815532575,"lon":-64.8778974161853},"departamento":{"id":"62077","nombre":"San Antonio"},"funcion":null,"id":"62077030","municipio":{"id":"620231","nombre":"San Antonio Oeste"},"nombre":"Puerto San Antonio Este","provincia":{"id":"62","nombre":"Río Negro"}},{"categoria":"Localidad simple","centroide":{"lat":-41.6941221979021,"lon":-65.0245573411298},"departamento":{"id":"62077","nombre":"San Antonio"},"funcion":null,"id":"62077040","municipio":{"id":"620238","nombre":"Sierra Grande"},"nombre":"Punta Colorada","provincia":{"id":"62","nombre":"Río Negro"}},{"categoria":"Localidad simple","centroide":{"lat":-40.811004684265,"lon":-64.7581129382783},"departamento":{"id":"62077","nombre":"San Antonio"},"funcion":null,"id":"62077045","municipio":{"id":"620231","nombre":"San Antonio Oeste"},"nombre":"Saco Viejo","provincia":{"id":"62","nombre":"Río Negro"}},{"categoria":"Localidad simple","centroide":{"lat":-40.7312945275013,"lon":-64.9552941307172},"departamento":{"id":"62077","nombre":"San Antonio"},"funcion":"CABECERA_DEPARTAMENTO","id":"62077050","municipio":{"id":"620231","nombre":"San Antonio Oeste"},"nombre":"San Antonio Oeste","provincia":{"id":"62","nombre":"Río Negro"}},{"categoria":"Localidad simple","centroide":{"lat":-41.6071863315513,"lon":-65.3534017406091},"departamento":{"id":"62077","nombre":"San Antonio"},"funcion":null,"id":"62077060","municipio":{"id":"620238","nombre":"Sierra Grande"},"nombre":"Sierra Grande","provincia":{"id":"62","nombre":"Río Negro"}},{"categoria":"Localidad simple","centroide":{"lat":-40.8478737807916,"lon":-65.8393274592303},"departamento":{"id":"62084","nombre":"Valcheta"},"funcion":null,"id":"62084010","municipio":{"id":"625168","nombre":"Aguada Cecilio"},"nombre":"Aguada Cecilio","provincia":{"id":"62","nombre":"Río Negro"}},{"categoria":"Localidad simple","centroide":{"lat":-41.4372536416486,"lon":-66.0950773167367},"departamento":{"id":"62084","nombre":"Valcheta"},"funcion":null,"id":"62084020","municipio":{"id":"625147","nombre":"Arroyo los Berros"},"nombre":"Arroyo Los Berros","provincia":{"id":"62","nombre":"Río Negro"}},{"categoria":"Localidad simple","centroide":{"lat":-41.6653937822188,"lon":-66.0860135550914},"departamento":{"id":"62084","nombre":"Valcheta"},"funcion":null,"id":"62084030","municipio":{"id":"625154","nombre":"Arroyo Ventana"},"nombre":"Arroyo Ventana","provincia":{"id":"62","nombre":"Río Negro"}},{"categoria":"Localidad simple","centroide":{"lat":-40.504198321368,"lon":-66.5657529968209},"departamento":{"id":"62084","nombre":"Valcheta"},"funcion":null,"id":"62084040","municipio":{"id":"625182","nombre":"Nahuel Niyeu"},"nombre":"Nahuel Niyeu","provincia":{"id":"62","nombre":"Río Negro"}},{"categoria":"Localidad simple","centroide":{"lat":-41.1812714523245,"lon":-65.9614292512301},"departamento":{"id":"62084","nombre":"Valcheta"},"funcion":null,"id":"62084050","municipio":{"id":"625189","nombre":"Sierra Paileman"},"nombre":"Sierra Pailemán","provincia":{"id":"62","nombre":"Río Negro"}},{"categoria":"Localidad simple","centroide":{"lat":-40.6778617788507,"lon":-66.1653261356888},"departamento":{"id":"62084","nombre":"Valcheta"},"funcion":"CABECERA_DEPARTAMENTO","id":"62084060","municipio":{"id":"620245","nombre":"Valcheta"},"nombre":"Valcheta","provincia":{"id":"62","nombre":"Río Negro"}},{"categoria":"Localidad simple","centroide":{"lat":-41.0639017102391,"lon":-68.3843810353051},"departamento":{"id":"62091","nombre":"25 de Mayo"},"funcion":null,"id":"62091010","municipio":{"id":"625196","nombre":"Aguada de Guerra"},"nombre":"Aguada de Guerra","provincia":{"id":"62","nombre":"Río Negro"}},{"categoria":"Localidad simple","centroide":{"lat":-41.2448350046555,"lon":-70.0342029410145},"departamento":{"id":"62091","nombre":"25 de Mayo"},"funcion":null,"id":"62091020","municipio":{"id":"625217","nombre":"Clemente Onelli"},"nombre":"Clemente Onelli","provincia":{"id":"62","nombre":"Río Negro"}},{"categoria":"Localidad simple","centroide":{"lat":-40.6706084126156,"lon":-69.1112545579992},"departamento":{"id":"62091","nombre":"25 de Mayo"},"funcion":null,"id":"62091030","municipio":{"id":"625203","nombre":"Colan Conhué"},"nombre":"Colan Conhue","provincia":{"id":"62","nombre":"Río Negro"}},{"categoria":"Localidad simple","centroide":{"lat":-41.8182874251641,"lon":-68.0774152377244},"departamento":{"id":"62091","nombre":"25 de Mayo"},"funcion":null,"id":"62091040","municipio":{"id":"625224","nombre":"El Cain"},"nombre":"El Caín","provincia":{"id":"62","nombre":"Río Negro"}},{"categoria":"Localidad simple","centroide":{"lat":-41.3268134240327,"lon":-69.5441263890306},"departamento":{"id":"62091","nombre":"25 de Mayo"},"funcion":null,"id":"62091050","municipio":{"id":"620252","nombre":"Ing. Jacobacci"},"nombre":"Ingeniero Jacobacci","provincia":{"id":"62","nombre":"Río Negro"}},{"categoria":"Localidad simple","centroide":{"lat":-40.8451911426273,"lon":-68.0832025061278},"departamento":{"id":"62091","nombre":"25 de Mayo"},"funcion":null,"id":"62091060","municipio":{"id":"620259","nombre":"Los Menucos"},"nombre":"Los Menucos","provincia":{"id":"62","nombre":"Río Negro"}},{"categoria":"Localidad simple","centroide":{"lat":-41.2475165638608,"lon":-68.7003410687453},"departamento":{"id":"62091","nombre":"25 de Mayo"},"funcion":"CABECERA_DEPARTAMENTO","id":"62091070","municipio":{"id":"620266","nombre":"Maquinchao"},"nombre":"Maquinchao","provincia":{"id":"62","nombre":"Río Negro"}},{"categoria":"Localidad simple","centroide":{"lat":-40.9343435582627,"lon":-69.411658784618},"departamento":{"id":"62091","nombre":"25 de Mayo"},"funcion":null,"id":"62091080","municipio":{"id":null,"nombre":null},"nombre":"Mina Santa Teresita","provincia":{"id":"62","nombre":"Río Negro"}},{"categoria":"Localidad simple","centroide":{"lat":-41.9083865405739,"lon":-68.3424732450183},"departamento":{"id":"62091","nombre":"25 de Mayo"},"funcion":null,"id":"62091090","municipio":{"id":"625252","nombre":"Pilquiniyeu"},"nombre":"Pilquiniyeu","provincia":{"id":"62","nombre":"Río Negro"}}],"parametros":{"max":600,"provincia":["62"]},"total":149}