{"cantidad":130,"inicio":0,"localidades_censales":[{"categoria":"Localidad simple","centroide":{"lat":-24.4402117565864,"lon":-64.0003361370349},"departamento":{"id":"66007","nombre":"Anta"},"funcion":null,"id":"66007010","municipio":{"id":"660007","nombre":"Apolinario Saravia"},"nombre":"Apolinario Saravia","provincia":{"id":"66","nombre":"Salta"}},{"categoria":"Localidad simple","centroide":{"lat":-25.1278603615752,"lon":-64.289673505941},"departamento":{"id":"66007","nombre":"Anta"},"funcion":null,"id":"66007020","municipio":{"id":"660028","nombre":"Joaquín V. González"},"nombre":"Ceibalito","provincia":{"id":"66","nombre":"Salta"}},{"categoria":"Localidad simple","centroide":{"lat":-24.9773189675124,"lon":-63.8698564395643},"departamento":{"id":"66007","nombre":"Anta"},"funcion":null,"id":"66007030","municipio":{"id":"660028","nombre":"Joaquín V. González"},"nombre":"Centro 25 de Junio","provincia":{"id":"66","nombre":"Salta"}},{"categoria":"Localidad simple","centroide":{"lat":-24.5136418287603,"lon":-64.0648836625582},"departamento":{"id":"66007","nombre":"Anta"},"funcion":null,"id":"66007040","municipio":{"id":"660007","nombre":"Apolinario Saravia"},"nombre":"Coronel Mollinedo","provincia":{"id":"66","nombre":"Salta"}},{"categoria":"Localidad simple","centroide":{"lat":-25.1146923148948,"lon":-64.2258664425772},"departamento":{"id":"66007","nombre":"Anta"},"funcion":null,"id":"66007050","municipio":{"id":"660028","nombre":"Joaquín V. González"},"nombre":"Coronel Olleros","provincia":{"id":"66","nombre":"Salta"}},{"categoria":"Localidad simple","centroide":{"lat":-25.3519821824981,"lon":-64.0287963887804},"departamento":{"id":"66007","nombre":"Anta"},"funcion":null,"id":"66007060","municipio":{"id":"660014","nombre":"El Quebrachal"},"nombre":"El Quebrachal","provincia":{"id":"66","nombre":"Salta"}},{"categoria":"Localidad simple","centroide":{"lat":-25.2581750325612,"lon":-64.0470243002426},"departamento":{"id":"66007","nombre":"Anta"},"funcion":null,"id":"66007070","municipio":{"id":"660014","nombre":"El Quebrachal"},"nombre":"Gaona","provincia":{"id":"66","nombre":"Salta"}},{"categoria":"Localidad simple","centroide":{"lat":-24.2342248497577,"lon":-63.9910915395849},"departamento":{"id":"66007","nombre":"Anta"},"funcion":null,"id":"66007080","municipio":{"id":"660021","nombre":"General Pizarro"},"nombre":"General Pizarro","provincia":{"id":"66","nombre":"Salta"}},{"categoria":"Localidad simple","centroide":{"lat":-25.1294324707809,"lon":-64.1385893694805},"departamento":{"id":"66007","nombre":"Anta"},"funcion":"CABECERA_DEPARTAMENTO","id":"66007090","municipio":{"id":"660028","nombre":"Joaquín V. González"},"nombre":"Joaquín V. González","provincia":{"id":"66","nombre":"Salta"}},{"categoria":"Localidad simple","centroide":{"lat":-24.7331988444238,"lon":-64.1994831202005},"departamento":{"id":"66007","nombre":"Anta"},"funcion":null,"id":"66007100","municipio":{"id":"660035","nombre":"Las Lajitas"},"nombre":"Las Lajitas","provincia":{"id":"66","nombre":"Salta"}},{"categoria":"Localidad simple","centroide":{"lat":-24.397713500488,"lon":-63.9961108041489},"departamento":{"id":"66007","nombre":"Anta"},"funcion":null,"id":"66007110","municipio":{"id":"660021","nombre":"General Pizarro"},"nombre":"Luis Burela","provincia":{"id":"66","nombre":"Salta"}},{"categoria":"Localidad simple","centroide":{"lat":-25.421569027557,"lon":-63.9896049019406},"departamento":{"id":"66007","nombre":"Anta"},"funcion":null,"id":"66007120","municipio":{"id":"660014","nombre":"El Quebrachal"},"nombre":"Macapillo","provincia":{"id":"66","nombre":"Salta"}},{"categoria":"Localidad simple","centroide":{"lat":-25.481072557645,"lon":-63.7880008281707},"departamento":{"id":"66007","nombre":"Anta"},"funcion":null,"id":"66007130","municipio":{"id":"660014","nombre":"El Quebrachal"},"nombre":"Nuestra Señora de Talavera","provincia":{"id":"66","nombre":"Salta"}},{"categoria":"Localidad simple","centroide":{"lat":-24.8260406674686,"lon":-64.1855790667322},"departamento":{"id":"66007","nombre":"Anta"},"funcion":null,"id":"66007140","municipio":{"id":"660028","nombre":"Joaquín V. González"},"nombre":"Piquete Cabado","provincia":{"id":"66","nombre":"Salta"}},{"categoria":"Localidad simple","centroide":{"lat":-24.6839685116395,"lon":-64.2017888257331},"departamento":{"id":"66007","nombre":"Anta"},"funcion":null,"id":"66007150","municipio":{"id":"660035","nombre":"Las Lajitas"},"nombre":"Río del Valle","provincia":{"id":"66","nombre":"Salta"}},{"categoria":"Localidad simple","centroide":{"lat":-25.5466456710138,"lon":-63.5342918601747},"departamento":{"id":"66007","nombre":"Anta"},"funcion":null,"id":"66007160","municipio":{"id":"660014","nombre":"El Quebrachal"},"nombre":"Tolloche","provincia":{"id":"66","nombre":"Salta"}},{"categoria":"Localidad simple","centroide":{"lat":-25.1201640072396,"lon":-66.1679494412162},"departamento":{"id":"66014","nombre":"Cachi"},"funcion":"CABECERA_DEPARTAMENTO","id":"66014010","municipio":{"id":"660042","nombre":"Cachi"},"nombre":"Cachi","provincia":{"id":"66","nombre":"Salta"}},{"categoria":"Localidad simple","centroide":{"lat":-25.0489479804199,"lon":-66.1027102397315},"departamento":{"id":"66014","nombre":"Cachi"},"funcion":null,"id":"66014020","municipio":{"id":"660049","nombre":"Payogasta"},"nombre":"Payogasta","provincia":{"id":"66","nombre":"Salta"}},{"categoria":"Localidad simple","centroide":{"lat":-26.0765384358548,"lon":-65.9862897320293},"departamento":{"id":"66021","nombre":"Cafayate"},"funcion":"CABECERA_DEPARTAMENTO","id":"66021010","municipio":{"id":"660056","nombre":"Cafayate"},"nombre":"Cafayate","provincia":{"id":"66","nombre":"Salta"}},{"categoria":"Localidad simple","centroide":{"lat":-26.2029574679842,"lon":-65.9467957704698},"departamento":{"id":"66021","nombre":"Cafayate"},"funcion":null,"id":"66021020","municipio":{"id":"660056","nombre":"Cafayate"},"nombre":"Tolombón","provincia":{"id":"66","nombre":"Salta"}},{"categoria":"Localidad simple","centroide":{"lat":-24.8166716062155,"lon":-65.4787180407276},"departamento":{"id":"66028","nombre":"Capital"},"funcion":null,"id":"66028010","municipio":{"id":"660070","nombre":"San Lorenzo"},"nombre":"Atocha","provincia":{"id":"66","nombre":"Salta"}},{"categoria":"Componente de localidad compuesta","centroide":{"lat":-24.8102390773552,"lon":-65.4582617852359},"departamento":{"id":"66028","nombre":"Capital"},"funcion":null,"id":"66028030","municipio":{"id":"660070","nombre":"San Lorenzo"},"nombre":"La Ciénaga y Barrio San Rafael","provincia":{"id":"66","nombre":"Salta"}},{"categoria":"Localidad simple","centroide":{"lat":-24.7690498139422,"lon":-65.4860333610823},"departamento":{"id":"66028","nombre":"Capital"},"funcion":null,"id":"66028040","municipio":{"id":"660070","nombre":"San Lorenzo"},"nombre":"Las Costas","provincia":{"id":"66","nombre":"Salta"}},{"categoria":"Componente de localidad compuesta","centroide":{"lat":-24.7823766403156,"lon":-65.4141329991055},"departamento":{"id":"66028","nombre":"Capital"},"funcion":"CAPITAL_PROVINCIA","id":"66028050","municipio":{"id":"660063","nombre":"Salta"},"nombre":"Salta","provincia":{"id":"66","nombre":"Salta"}},{"categoria":"Componente de localidad compuesta","centroide":{"lat":-24.7333009865645,"lon":-65.4847891426226},"departamento":{"id":"66028","nombre":"Capital"},"funcion":null,"id":"66028060","municipio":{"id":"660070","nombre":"San Lorenzo"},"nombre":"Villa San Lorenzo","provincia":{"id":"66","nombre":"Salta"}},{"categoria":"Componente de localidad compuesta","centroide":{"lat":-24.899748268594,"lon":-65.4884058419647},"departamento":{"id":"66035","nombre":"Cerrillos"},"funcion":"CABECERA_DEPARTAMENTO","id":"66035010","municipio":{"id":"660077","nombre":"Cerrillos"},"nombre":"Cerrillos","provincia":{"id":"66","nombre":"Salta"}},{"categoria":"Localidad simple","centroide":{"lat":-24.9660896493444,"lon":-65.4895901036815},"departamento":{"id":"66035","nombre":"Cerrillos"},"funcion":null,"id":"66035020","municipio":{"id":"660084","nombre":"La Merced"},"nombre":"La Merced","provincia":{"id":"66","nombre":"Salta"}},{"categoria":"Localidad simple","centroide":{"lat":-24.9967896088099,"lon":-65.4377599331623},"departamento":{"id":"66035","nombre":"Cerrillos"},"funcion":null,"id":"66035030","municipio":{"id":"660084","nombre":"La Merced"},"nombre":"San Agustín","provincia":{"id":"66","nombre":"Salta"}},{"categoria":"Componente de localidad compuesta","centroide":{"lat":-24.8630942974132,"lon":-65.4594268472934},"departamento":{"id":"66035","nombre":"Cerrillos"},"funcion":null,"id":"66035040","municipio":{"id":"660077","nombre":"Cerrillos"},"nombre":"Villa Los Álamos - El Congreso - Las Tunas - Los Pinares - Los Olmos","provincia":{"id":"66","nombre":"Salta"}},{"categoria":"Localidad simple","centroide":{"lat":-25.1512347050013,"lon":-65.4426106862489},"departamento":{"id":"66042","nombre":"Chicoana"},"funcion":null,"id":"66042003","municipio":{"id":"660091","nombre":"Chicoana"},"nombre":"Barrio Finca La Maroma","provincia":{"id":"66","nombre":"Salta"}},{"categoria":"Localidad simple","centroide":{"lat":-25.0825653440585,"lon":-65.5369944152078},"departamento":{"id":"66042","nombre":"Chicoana"},"funcion":null,"id":"66042005","municipio":{"id":"660091","nombre":"Chicoana"},"nombre":"Barrio La Rotonda","provincia":{"id":"66","nombre":"Salta"}},{"categoria":"Localidad simple","centroide":{"lat":-25.0370260259242,"lon":-65.5726459572587},"departamento":{"id":"66042","nombre":"Chicoana"},"funcion":null,"id":"66042007","municipio":{"id":"660091","nombre":"Chicoana"},"nombre":"Barrio Santa Teresita","provincia":{"id":"66","nombre":"Salta"}},{"categoria":"Localidad simple","centroide":{"lat":-25.1056023710125,"lon":-65.5368903535961},"departamento":{"id":"66042","nombre":"Chicoana"},"funcion":"CABECERA_DEPARTAMENTO","id":"66042010","municipio":{"id":"660091","nombre":"Chicoana"},"nombre":"Chicoana","provincia":{"id":"66","nombre":"Salta"}},{"categoria":"Localidad simple","centroide":{"lat":-25.0768547028404,"lon":-65.4938473919709},"departamento":{"id":"66042","nombre":"Chicoana"},"funcion":null,"id":"66042020","municipio":{"id":"660098","nombre":"El Carril"},"nombre":"El Carril","provincia":{"id":"66","nombre":"Salta"}},{"categoria":"Localidad simple","centroide":{"lat":-24.6839924533229,"lon":-65.102855681603},"departamento":{"id":"66049","nombre":"General Güemes"},"funcion":null,"id":"66049010","municipio":{"id":"660105","nombre":"Campo Santo"},"nombre":"Campo Santo","provincia":{"id":"66","nombre":"Salta"}},{"categoria":"Localidad simple","centroide":{"lat":-24.7414709076566,"lon":-65.0839324652619},"departamento":{"id":"66049","nombre":"General Güemes"},"funcion":null,"id":"66049020","municipio":{"id":"660105","nombre":"Campo Santo"},"nombre":"Cobos","provincia":{"id":"66","nombre":"Salta"}},{"categoria":"Localidad simple","centroide":{"lat":-24.6610743291372,"lon":-65.1054298866391},"departamento":{"id":"66049","nombre":"General Güemes"},"funcion":null,"id":"66049030","municipio":{"id":"660112","nombre":"El Bordo"},"nombre":"El Bordo","provincia":{"id":"66","nombre":"Salta"}},{"categoria":"Localidad simple","centroide":{"lat":-24.6684436198384,"lon":-65.0493527755239},"departamento":{"id":"66049","nombre":"General Güemes"},"funcion":"CABECERA_DEPARTAMENTO","id":"66049040","municipio":{"id":"660119","nombre":"General Güemes"},"nombre":"General Güemes","provincia":{"id":"66","nombre":"Salta"}},{"categoria":"Localidad simple","centroide":{"lat":-22.2388143093458,"lon":-63.7283889210813},"departamento":{"id":"66056","nombre":"General José de San Martín"},"funcion":null,"id":"66056010","municipio":{"id":"660126","nombre":"Aguaray"},"nombre":"Aguaray","provincia":{"id":"66","nombre":"Salta"}},{"categoria":"Localidad simple","centroide":{"lat":-22.5800471662206,"lon":-63.8523231844895},"departamento":{"id":"66056","nombre":"General José de San Martín"},"funcion":null,"id":"66056020","municipio":{"id":"660147","nombre":"General Mosconi"},"nombre":"Campamento Vespucio","provincia":{"id":"66","nombre":"Salta"}},{"categoria":"Localidad simple","centroide":{"lat":-23.1062412034464,"lon":-63.9953139246427},"departamento":{"id":"66056","nombre":"General José de San Martín"},"funcion":null,"id":"66056030","municipio":{"id":"660133","nombre":"Embarcación"},"nombre":"Campichuelo","provincia":{"id":"66","nombre":"Salta"}},{"categoria":"Localidad simple","centroide":{"lat":-22.1925191184959,"lon":-63.6556166497527},"departamento":{"id":"66056","nombre":"General José de San Martín"},"funcion":null,"id":"66056040","municipio":{"id":"660154","nombre":"Profesor Salvador Mazza"},"nombre":"Campo Durán","provincia":{"id":"66","nombre":"Salta"}},{"categoria":"Localidad simple","centroide":{"lat":-22.1673388747523,"lon":-63.7086209918975},"departamento":{"id":"66056","nombre":"General José de San Martín"},"funcion":null,"id":"66056050","municipio":{"id":"660126","nombre":"Aguaray"},"nombre":"Capiazuti","provincia":{"id":"66","nombre":"Salta"}},{"categoria":"Localidad simple","centroide":{"lat":-23.2595016179972,"lon":-63.8026685275305},"departamento":{"id":"66056","nombre":"General José de San Martín"},"funcion":null,"id":"66056060","municipio":{"id":"660133","nombre":"Embarcación"},"nombre":"Carboncito","provincia":{"id":"66","nombre":"Salta"}},{"categoria":"Localidad simple","centroide":{"lat":-22.736606161274,"lon":-63.8212340428558},"departamento":{"id":"66056","nombre":"General José de San Martín"},"funcion":null,"id":"66056070","municipio":{"id":"660147","nombre":"General Mosconi"},"nombre":"Coronel Cornejo","provincia":{"id":"66","nombre":"Salta"}},{"categoria":"Localidad simple","centroide":{"lat":-23.2581867482105,"lon":-63.3390555232417},"departamento":{"id":"66056","nombre":"General José de San Martín"},"funcion":null,"id":"66056080","municipio":{"id":"660133","nombre":"Embarcación"},"nombre":"Dragones","provincia":{"id":"66","nombre":"Salta"}},{"categoria":"Localidad simple","centroide":{"lat":-23.2042135269827,"lon":-64.0900817936338},"departamento":{"id":"66056","nombre":"General José de San Martín"},"funcion":null,"id":"66056090","municipio":{"id":"660133","nombre":"Embarcación"},"nombre":"Embarcación","provincia":{"id":"66","nombre":"Salta"}},{"categoria":"Localidad simple","centroide":{"lat":-22.9276105225425,"lon":-63.8522934424036},"departamento":{"id":"66056","nombre":"General José de San Martín"},"funcion":null,"id":"66056100","municipio":{"id":"660140","nombre":"General Ballivián"},"nombre":"General Ballivián","provincia":{"id":"66","nombre":"Salta"}},{"categoria":"Localidad simple","centroide":{"lat":-22.5872984531874,"lon":-63.807509866284},"departamento":{"id":"66056","nombre":"General José de San Martín"},"funcion":null,"id":"66056110","municipio":{"id":"660147","nombre":"General Mosconi"},"nombre":"General Mosconi","provincia":{"id":"66","nombre":"Salta"}},{"categoria":"Localidad simple","centroide":{"lat":-23.2174884897188,"lon":-63.5643624737058},"departamento":{"id":"66056","nombre":"General José de San Martín"},"funcion":null,"id":"66056120","municipio":{"id":"660133","nombre":"Embarcación"},"nombre":"Hickman","provincia":{"id":"66","nombre":"Salta"}},{"categoria":"Localidad simple","centroide":{"lat":-23.2761412353834,"lon":-63.7361800240654},"departamento":{"id":"66056","nombre":"General José de San Martín"},"funcion":null,"id":"66056130","municipio":{"id":"660133","nombre":"Embarcación"},"nombre":"Misión Chaqueña","provincia":{"id":"66","nombre":"Salta"}},{"categoria":"Componente de localidad compuesta","centroide":{"lat":-22.5428328625163,"lon":-63.7906336772576},"departamento":{"id":"66056","nombre":"General José de San Martín"},"funcion":null,"id":"66056140","municipio":{"id":"660161","nombre":"Tartagal"},"nombre":"Misión El Cruce - El Milagro - El Jardín de San Martín","provincia":{"id":"66","nombre":"Salta"}},{"categoria":"Localidad simple","centroide":{"lat":-22.5060228278102,"lon":-63.7399721901134},"departamento":{"id":"66056","nombre":"General José de San Martín"},"funcion":null,"id":"66056150","municipio":{"id":"660161","nombre":"Tartagal"},"nombre":"Misión Kilómetro 6","provincia":{"id":"66","nombre":"Salta"}},{"categoria":"Localidad simple","centroide":{"lat":-22.4452723425454,"lon":-63.43543212618},"departamento":{"id":"66056","nombre":"General José de San Martín"},"funcion":null,"id":"66056170","municipio":{"id":"660161","nombre":"Tartagal"},"nombre":"Pacará","provincia":{"id":"66","nombre":"Salta"}},{"categoria":"Localidad simple","centroide":{"lat":-23.215724803759,"lon":-63.8426467906727},"departamento":{"id":"66056","nombre":"General José de San Martín"},"funcion":null,"id":"66056180","municipio":{"id":"660133","nombre":"Embarcación"},"nombre":"Padre Lozano","provincia":{"id":"66","nombre":"Salta"}},{"categoria":"Localidad simple","centroide":{"lat":-22.3335490812005,"lon":-63.7596847135861},"departamento":{"id":"66056","nombre":"General José de San Martín"},"funcion":null,"id":"66056190","municipio":{"id":"660126","nombre":"Aguaray"},"nombre":"Piquirenda","provincia":{"id":"66","nombre":"Salta"}},{"categoria":"Localidad simple","centroide":{"lat":-22.040531221334,"lon":-63.6786872238435},"departamento":{"id":"66056","nombre":"General José de San Martín"},"funcion":null,"id":"66056200","municipio":{"id":null,"nombre":null},"nombre":"Profesor Salvador Mazza","provincia":{"id":"66","nombre":"Salta"}},{"categoria":"Componente de localidad compuesta","centroide":{"lat":-22.5098645099451,"lon":-63.7970472996098},"departamento":{"id":"66056","nombre":"General José de San Martín"},"funcion":"CABECERA_DEPARTAMENTO","id":"66056220","municipio":{"id":"660161","nombre":"Tartagal"},"nombre":"Tartagal","provincia":{"id":"66","nombre":"Salta"}},{"categoria":"Localidad simple","centroide":{"lat":-22.13833247169,"lon":-63.7061819675909},"departamento":{"id":"66056","nombre":"General José de San Martín"},"funcion":null,"id":"66056230","municipio":{"id":"660126","nombre":"Aguaray"},"nombre":"Tobantirenda","provincia":{"id":"66","nombre":"Salta"}},{"categoria":"Localidad simple","centroide":{"lat":-22.4076174158756,"lon":-63.7681399387897},"departamento":{"id":"66056","nombre":"General José de San Martín"},"funcion":null,"id":"66056240","municipio":{"id":"660161","nombre":"Tartagal"},"nombre":"Tranquitas","provincia":{"id":"66","nombre":"Salta"}},{"categoria":"Localidad simple","centroide":{"lat":-25.5235484724461,"lon":-65.5187644501143},"departamento":{"id":"66063","nombre":"Guachipas"},"funcion":"CABECERA_DEPARTAMENTO","id":"66063010","municipio":{"id":"660168","nombre":"Guachipas"},"nombre":"Guachipas","provincia":{"id":"66","nombre":"Salta"}},{"categoria":"Localidad simple","centroide":{"lat":-22.7789158765788,"lon":-65.2063598136374},"departamento":{"id":"66070","nombre":"Iruya"},"funcion":"CABECERA_DEPARTAMENTO","id":"66070010","municipio":{"id":"660175","nombre":"Iruya"},"nombre":"Iruya","provincia":{"id":"66","nombre":"Salta"}},{"categoria":"Localidad simple","centroide":{"lat":-22.8864200252899,"lon":-64.6573757192202},"departamento":{"id":"66070","nombre":"Iruya"},"funcion":null,"id":"66070020","municipio":{"id":"660182","nombre":"Isla de Cañas"},"nombre":"Isla de Cañas","provincia":{"id":"66","nombre":"Salta"}},{"categoria":"Localidad simple","centroide":{"lat":-22.8263430234688,"lon":-65.2018356755618},"departamento":{"id":"66070","nombre":"Iruya"},"funcion":null,"id":"66070030","municipio":{"id":"660175","nombre":"Iruya"},"nombre":"Pueblo Viejo","provincia":{"id":"66","nombre":"Salta"}},{"categoria":"Localidad simple","centroide":{"lat":-24.6049486234217,"lon":-65.3823377302988},"departamento":{"id":"66077","nombre":"La Caldera"},"funcion":"CABECERA_DEPARTAMENTO","id":"66077010","municipio":{"id":"660189","nombre":"La Caldera"},"nombre":"La Caldera","provincia":{"id":"66","nombre":"Salta"}},{"categoria":"Componente de localidad compuesta","centroide":{"lat":-24.6945211920197,"lon":-65.4026944187147},"departamento":{"id":"66077","nombre":"La Caldera"},"funcion":null,"id":"66077020","municipio":{"id":"660196","nombre":"Vaqueros"},"nombre":"Vaqueros","provincia":{"id":"66","nombre":"Salta"}},{"categoria":"Localidad simple","centroide":{"lat":-26.0938834199791,"lon":-65.41384156239},"departamento":{"id":"66084","nombre":"La Candelaria"},"funcion":null,"id":"66084010","municipio":{"id":"660203","nombre":"El Jardín"},"nombre":"El Jardín","provincia":{"id":"66","nombre":"Salta"}},{"categoria":"Localidad simple","centroide":{"lat":-26.1208917578309,"lon":-65.2873058787689},"departamento":{"id":"66084","nombre":"La Candelaria"},"funcion":null,"id":"66084020","municipio":{"id":"660210","nombre":"El Tala"},"nombre":"El Tala","provincia":{"id":"66","nombre":"Salta"}},{"categoria":"Localidad simple","centroide":{"lat":-26.0961790089843,"lon":-65.0610119525095},"departamento":{"id":"66084","nombre":"La Candelaria"},"funcion":"CABECERA_DEPARTAMENTO","id":"66084030","municipio":{"id":"660217","nombre":"La Candelaria"},"nombre":"La Candelaria","provincia":{"id":"66","nombre":"Salta"}},{"categoria":"Localidad simple","centroide":{"lat":-23.6391998500842,"lon":-66.2684039729565},"departamento":{"id":"66091","nombre":"La Poma"},"funcion":null,"id":"66091010","municipio":{"id":"660224","nombre":"La Poma"},"nombre":"Cobres","provincia":{"id":"66","nombre":"Salta"}},{"categoria":"Localidad simple","centroide":{"lat":-24.7129010493054,"lon":-66.1997385176463},"departamento":{"id":"66091","nombre":"La Poma"},"funcion":"CABECERA_DEPARTAMENTO","id":"66091020","municipio":{"id":"660224","nombre":"La Poma"},"nombre":"La Poma","provincia":{"id":"66","nombre":"Salta"}},{"categoria":"Localidad simple","centroide":{"lat":-25.355455514438,"lon":-65.5323044668329},"departamento":{"id":"66098","nombre":"La Viña"},"funcion":null,"id":"66098010","municipio":{"id":"660238","nombre":"La Viña"},"nombre":"Ampascachi","provincia":{"id":"66","nombre":"Salta"}},{"categoria":"Localidad simple","centroide":{"lat":-25.290036707535,"lon":-65.38778537012},"departamento":{"id":"66098","nombre":"La Viña"},"funcion":null,"id":"66098020","municipio":{"id":"660168","nombre":"Guachipas"},"nombre":"Cabra Corral","provincia":{"id":"66","nombre":"Salta"}},{"categoria":"Localidad simple","centroide":{"lat":-25.2889404681421,"lon":-65.4745373510335},"departamento":{"id":"66098","nombre":"La Viña"},"funcion":null,"id":"66098030","municipio":{"id":"660231","nombre":"Coronel Moldes"},"nombre":"Coronel Moldes","provincia":{"id":"66","nombre":"Salta"}},{"categoria":"Localidad simple","centroide":{"lat":-25.4719724619835,"lon":-65.5719838890076},"departamento":{"id":"66098","nombre":"La Viña"},"funcion":"CABECERA_DEPARTAMENTO","id":"66098040","municipio":{"id":"660238","nombre":"La Viña"},"nombre":"La Viña","provincia":{"id":"66","nombre":"Salta"}},{"categoria":"Localidad simple","centroide":{"lat":-25.5463746287562,"lon":-65.5596728817539},"departamento":{"id":"66098","nombre":"La Viña"},"funcion":null,"id":"66098050","municipio":{"id":"660238","nombre":"La Viña"},"nombre":"Talapampa","provincia":{"id":"66","nombre":"Salta"}},{"categoria":"Localidad simple","centroide":{"lat":-24.1197745515994,"lon":-66.7142594000385},"departamento":{"id":"66105","nombre":"Los Andes"},"funcion":null,"id":"66105010","municipio":{"id":"386168","nombre":"Susques"},"nombre":"Olacapato","provincia":{"id":"66","nombre":"Salta"}},{"categoria":"Localidad simple","centroide":{"lat":-24.2099310029638,"lon":-66.315435998094},"departamento":{"id":"66105","nombre":"Los Andes"},"funcion":"CABECERA_DEPARTAMENTO","id":"66105020","municipio":{"id":"660245","nombre":"San Antonio de los Cobres"},"nombre":"San Antonio de los Cobres","provincia":{"id":"66","nombre":"Salta"}},{"categoria":"Localidad simple","centroide":{"lat":-24.478105777316,"lon":-66.6785400667592},"departamento":{"id":"66105","nombre":"Los Andes"},"funcion":null,"id":"66105030","municipio":{"id":"660245","nombre":"San Antonio de los Cobres"},"nombre":"Santa Rosa de los Pastos Grandes","provincia":{"id":"66","nombre":"Salta"}},{"categoria":"Localidad simple","centroide":{"lat":-24.5579851944765,"lon":-67.4369653675359},"departamento":{"id":"66105","nombre":"Los Andes"},"funcion":null,"id":"66105040","municipio":{"id":"660252","nombre":"Tolar Grande"},"nombre":"Tolar Grande","provincia":{"id":"66","nombre":"Salta"}},{"categoria":"Localidad simple","centroide":{"lat":-25.3915864503967,"lon":-64.6595062933992},"departamento":{"id":"66112","nombre":"Metán"},"funcion":null,"id":"66112010","municipio":{"id":"660259","nombre":"El Galpón"},"nombre":"El Galpón","provincia":{"id":"66","nombre":"Salta"}},{"categoria":"Localidad simple","centroide":{"lat":-25.2652645771513,"lon":-64.4061042227155},"departamento":{"id":"66112","nombre":"Metán"},"funcion":null,"id":"66112020","municipio":{"id":"660259","nombre":"El Galpón"},"nombre":"El Tunal","provincia":{"id":"66","nombre":"Salta"}},{"categoria":"Localidad simple","centroide":{"lat":-25.2172575790264,"lon":-64.9306861458005},"departamento":{"id":"66112","nombre":"Metán"},"funcion":null,"id":"66112030","municipio":{"id":"660280","nombre":"Río Piedras"},"nombre":"Lumbreras","provincia":{"id":"66","nombre":"Salta"}},{"categoria":"Localidad simple","centroide":{"lat":-25.5077205377148,"lon":-64.9821245409304},"departamento":{"id":"66112","nombre":"Metán"},"funcion":"CABECERA_DEPARTAMENTO","id":"66112040","municipio":{"id":"660266","nombre":"Metán"},"nombre":"San José de Metán (Est. Metán)","provincia":{"id":"66","nombre":"Salta"}},{"categoria":"Localidad simple","centroide":{"lat":-25.5418039517985,"lon":-64.9849385087879},"departamento":{"id":"66112","nombre":"Metán"},"funcion":null,"id":"66112050","municipio":{"id":"660266","nombre":"Metán"},"nombre":"Metán Viejo","provincia":{"id":"66","nombre":"Salta"}},{"categoria":"Localidad simple","centroide":{"lat":-25.3211818761179,"lon":-64.917329424853},"departamento":{"id":"66112","nombre":"Metán"},"funcion":null,"id":"66112070","municipio":{"id":"660280","nombre":"Río Piedras"},"nombre":"Río Piedras","provincia":{"id":"66","nombre":"Salta"}},{"categoria":"Localidad simple","centroide":{"lat":-25.2783094165373,"lon":-64.0850561648465},"departamento":{"id":"66112","nombre":"Metán"},"funcion":null,"id":"66112080","municipio":{"id":"660259","nombre":"El Galpón"},"nombre":"San José de Orquera","provincia":{"id":"66","nombre":"Salta"}},{"categoria":"Localidad simple","centroide":{"lat":-25.2804538149509,"lon":-66.4508396566503},"departamento":{"id":"66119","nombre":"Molinos"},"funcion":null,"id":"66119010","municipio":{"id":"660273","nombre":"Molinos"},"nombre":"La Puerta","provincia":{"id":"66","nombre":"Salta"}},{"categoria":"Localidad simple","centroide":{"lat":-25.4442432937572,"lon":-66.3088500894253},"departamento":{"id":"66119","nombre":"Molinos"},"funcion":"CABECERA_DEPARTAMENTO","id":"66119020","municipio":{"id":"660273","nombre":"Molinos"},"nombre":"Molinos","provincia":{"id":"66","nombre":"Salta"}},{"categoria":"Localidad simple","centroide":{"lat":-22.3765769868638,"lon":-63.7654304903785},"departamento":{"id":"66056","nombre":"General José de San Martín"},"funcion":null,"id":"66056250","municipio":{"id":"660161","nombre":"Tartagal"},"nombre":"Yacuy","provincia":{"id":"66","nombre":"Salta"}},{"categoria":"Localidad simple","centroide":{"lat":-25.3305099574445,"lon":-66.2484466228606},"departamento":{"id":"66119","nombre":"Molinos"},"funcion":null,"id":"66119030","municipio":{"id":"660287","nombre":"Seclantás"},"nombre":"Seclantás","provincia":{"id":"66","nombre":"Salta"}},{"categoria":"Localidad simple","centroide":{"lat":-22.7245611902241,"lon":-64.346319220401},"departamento":{"id":"66126","nombre":"Orán"},"funcion":null,"id":"66126010","municipio":{"id":null,"nombre":null},"nombre":"Aguas Blancas","provincia":{"id":"66","nombre":"Salta"}},{"categoria":"Localidad simple","centroide":{"lat":-23.3885957203176,"lon":-64.4234333229489},"departamento":{"id":"66126","nombre":"Orán"},"funcion":null,"id":"66126020","municipio":{"id":"660294","nombre":"Colonia Santa Rosa"},"nombre":"Colonia Santa Rosa","provincia":{"id":"66","nombre":"Salta"}},{"categoria":"Localidad simple","centroide":{"lat":-23.2500270361093,"lon":-64.2445058938392},"departamento":{"id":"66126","nombre":"Orán"},"funcion":null,"id":"66126030","municipio":{"id":"660301","nombre":"Hipólito Yrigoyen"},"nombre":"El Tabacal","provincia":{"id":"66","nombre":"Salta"}},{"categoria":"Localidad simple","centroide":{"lat":-23.2382702479068,"lon":-64.2718125360107},"departamento":{"id":"66126","nombre":"Orán"},"funcion":null,"id":"66126040","municipio":{"id":"660301","nombre":"Hipólito Yrigoyen"},"nombre":"Hipólito Yrigoyen","provincia":{"id":"66","nombre":"Salta"}},{"categoria":"Localidad simple","centroide":{"lat":-23.3133896525098,"lon":-64.219751841333},"departamento":{"id":"66126","nombre":"Orán"},"funcion":null,"id":"66126060","municipio":{"id":"660308","nombre":"Pichanal"},"nombre":"Pichanal","provincia":{"id":"66","nombre":"Salta"}},{"categoria":"Localidad simple","centroide":{"lat":-23.1298138873916,"lon":-64.3185884747041},"departamento":{"id":"66126","nombre":"Orán"},"funcion":"CABECERA_DEPARTAMENTO","id":"66126070","municipio":{"id":"660315","nombre":"San Ramón de la Nueva Orán"},"nombre":"San Ramón de la Nueva Orán","provincia":{"id":"66","nombre":"Salta"}},{"categoria":"Localidad simple","centroide":{"lat":-23.5516314679633,"lon":-64.3965188048038},"departamento":{"id":"66126","nombre":"Orán"},"funcion":null,"id":"66126080","municipio":{"id":"660322","nombre":"Urundel"},"nombre":"Urundel","provincia":{"id":"66","nombre":"Salta"}},{"categoria":"Localidad simple","centroide":{"lat":-22.6893772924132,"lon":-62.4527756437584},"departamento":{"id":"66133","nombre":"Rivadavia"},"funcion":null,"id":"66133010","municipio":{"id":"660343","nombre":"Santa Victoria Este"},"nombre":"Alto de la Sierra","provincia":{"id":"66","nombre":"Salta"}},{"categoria":"Localidad simple","centroide":{"lat":-23.7084876711102,"lon":-62.3817949445121},"departamento":{"id":"66133","nombre":"Rivadavia"},"funcion":null,"id":"66133020","municipio":{"id":"660329","nombre":"Rivadavia Banda Norte"},"nombre":"Capitán Juan Pagé","provincia":{"id":"66","nombre":"Salta"}},{"categoria":"Localidad simple","centroide":{"lat":-23.4836432078231,"lon":-62.8913108733338},"departamento":{"id":"66133","nombre":"Rivadavia"},"funcion":null,"id":"66133030","municipio":{"id":"660329","nombre":"Rivadavia Banda Norte"},"nombre":"Coronel Juan Solá","provincia":{"id":"66","nombre":"Salta"}},{"categoria":"Localidad simple","centroide":{"lat":-21.9997109682412,"lon":-62.8237382800005},"departamento":{"id":"66133","nombre":"Rivadavia"},"funcion":null,"id":"66133035","municipio":{"id":"660343","nombre":"Santa Victoria Este"},"nombre":"Hito 1","provincia":{"id":"66","nombre":"Salta"}},{"categoria":"Localidad simple","centroide":{"lat":-23.946204699024,"lon":-63.1119727442095},"departamento":{"id":"66133","nombre":"Rivadavia"},"funcion":null,"id":"66133040","municipio":{"id":"660336","nombre":"Rivadavia Banda Sur"},"nombre":"La Unión","provincia":{"id":"66","nombre":"Salta"}},{"categoria":"Localidad simple","centroide":{"lat":-23.630147809494,"lon":-62.5972373009179},"departamento":{"id":"66133","nombre":"Rivadavia"},"funcion":null,"id":"66133050","municipio":{"id":"660329","nombre":"Rivadavia Banda Norte"},"nombre":"Los Blancos","provincia":{"id":"66","nombre":"Salta"}},{"categoria":"Localidad simple","centroide":{"lat":-23.3808426324425,"lon":-63.098055649631},"departamento":{"id":"66133","nombre":"Rivadavia"},"funcion":null,"id":"66133060","municipio":{"id":"660329","nombre":"Rivadavia Banda Norte"},"nombre":"Pluma de Pato","provincia":{"id":"66","nombre":"Salta"}},{"categoria":"Localidad simple","centroide":{"lat":-24.1928479299753,"lon":-62.8855846188739},"departamento":{"id":"66133","nombre":"Rivadavia"},"funcion":"CABECERA_DEPARTAMENTO","id":"66133070","municipio":{"id":"660336","nombre":"Rivadavia Banda Sur"},"nombre":"Rivadavia","provincia":{"id":"66","nombre":"Salta"}},{"categoria":"Localidad simple","centroide":{"lat":-22.1394975256356,"lon":-62.8383245890232},"departamento":{"id":"66133","nombre":"Rivadavia"},"funcion":null,"id":"66133080","municipio":{"id":"660343","nombre":"Santa Victoria Este"},"nombre":"Santa María","provincia":{"id":"66","nombre":"Salta"}},{"categoria":"Localidad simple","centroide":{"lat":-24.0763765853123,"lon":-63.1236773681358},"departamento":{"id":"66133","nombre":"Rivadavia"},"funcion":null,"id":"66133090","municipio":{"id":"660336","nombre":"Rivadavia Banda Sur"},"nombre":"Santa Rosa","provincia":{"id":"66","nombre":"Salta"}},{"categoria":"Localidad simple","centroide":{"lat":-22.2772903307188,"lon":-62.7043719454645},"departamento":{"id":"66133","nombre":"Rivadavia"},"funcion":null,"id":"66133100","municipio":{"id":"660343","nombre":"Santa Victoria Este"},"nombre":"Santa Victoria Este","provincia":{"id":"66","nombre":"Salta"}},{"categoria":"Localidad simple","centroide":{"lat":-26.1367474431656,"lon":-64.6079955159401},"departamento":{"id":"66140","nombre":"Rosario de la Frontera"},"funcion":null,"id":"66140010","municipio":{"id":"660350","nombre":"El Potrero"},"nombre":"Antillá","provincia":{"id":"66","nombre":"Salta"}},{"categoria":"Localidad simple","centroide":{"lat":-26.0280256948964,"lon":-64.6831914609089},"departamento":{"id":"66140","nombre":"Rosario de la Frontera"},"funcion":null,"id":"66140020","municipio":{"id":"660350","nombre":"El Potrero"},"nombre":"Copo Quile","provincia":{"id":"66","nombre":"Salta"}},{"categoria":"Localidad simple","centroide":{"lat":-25.7376092528727,"lon":-65.0197887857072},"departamento":{"id":"66140","nombre":"Rosario de la Frontera"},"funcion":null,"id":"66140030","municipio":{"id":"660357","nombre":"Rosario de la Frontera"},"nombre":"El Naranjo","provincia":{"id":"66","nombre":"Salta"}},{"categoria":"Localidad simple","centroide":{"lat":-26.0638952332339,"lon":-64.656831424558},"departamento":{"id":"66140","nombre":"Rosario de la Frontera"},"funcion":null,"id":"66140040","municipio":{"id":"660350","nombre":"El Potrero"},"nombre":"El Potrero","provincia":{"id":"66","nombre":"Salta"}},{"categoria":"Localidad simple","centroide":{"lat":-25.8088971820865,"lon":-64.9840618242783},"departamento":{"id":"66140","nombre":"Rosario de la Frontera"},"funcion":"CABECERA_DEPARTAMENTO","id":"66140050","municipio":{"id":"660357","nombre":"Rosario de la Frontera"},"nombre":"Rosario de la Frontera","provincia":{"id":"66","nombre":"Salta"}},{"categoria":"Localidad simple","centroide":{"lat":-25.7231125127283,"lon":-64.8260626677768},"departamento":{"id":"66140","nombre":"Rosario de la Frontera"},"funcion":null,"id":"66140060","municipio":{"id":"660357","nombre":"Rosario de la Frontera"},"nombre":"San Felipe","provincia":{"id":"66","nombre":"Salta"}},{"categoria":"Localidad simple","centroide":{"lat":-24.9095603902622,"lon":-65.639505025843},"departamento":{"id":"66147","nombre":"Rosario de Lerma"},"funcion":null,"id":"66147010","municipio":{"id":"660364","nombre":"Campo Quijano"},"nombre":"Campo Quijano","provincia":{"id":"66","nombre":"Salta"}},{"categoria":"Localidad simple","centroide":{"lat":-24.8709646124105,"lon":-65.5607604731238},"departamento":{"id":"66147","nombre":"Rosario de Lerma"},"funcion":null,"id":"66147015","municipio":{"id":"660371","nombre":"Rosario de Lerma"},"nombre":"La Merced del Encón","provincia":{"id":"66","nombre":"Salta"}},{"categoria":"Localidad simple","centroide":{"lat":-24.8784643256454,"lon":-65.5901794974295},"departamento":{"id":"66147","nombre":"Rosario de Lerma"},"funcion":null,"id":"66147020","municipio":{"id":"660364","nombre":"Campo Quijano"},"nombre":"La Silleta","provincia":{"id":"66","nombre":"Salta"}},{"categoria":"Localidad simple","centroide":{"lat":-24.9780005506773,"lon":-65.5804316181731},"departamento":{"id":"66147","nombre":"Rosario de Lerma"},"funcion":"CABECERA_DEPARTAMENTO","id":"66147030","municipio":{"id":"660371","nombre":"Rosario de Lerma"},"nombre":"Rosario de Lerma","provincia":{"id":"66","nombre":"Salta"}},{"categoria":"Localidad simple","centroide":{"lat":-25.6837320095857,"lon":-66.1630084648275},"departamento":{"id":"66154","nombre":"San Carlos"},"funcion":null,"id":"66154010","municipio":{"id":"660378","nombre":"Angastaco"},"nombre":"Angastaco","provincia":{"id":"66","nombre":"Salta"}},{"categoria":"Localidad simple","centroide":{"lat":-25.9250695350422,"lon":-65.9634886394429},"departamento":{"id":"66154","nombre":"San Carlos"},"funcion":null,"id":"66154020","municipio":{"id":"660385","nombre":"Animaná"},"nombre":"Animaná","provincia":{"id":"66","nombre":"Salta"}},{"categoria":"Localidad simple","centroide":{"lat":-25.9119189620255,"lon":-65.9509642786695},"departamento":{"id":"66154","nombre":"San Carlos"},"funcion":null,"id":"66154030","municipio":{"id":"660385","nombre":"Animaná"},"nombre":"El Barrial","provincia":{"id":"66","nombre":"Salta"}},{"categoria":"Localidad simple","centroide":{"lat":-25.8954496537353,"lon":-65.9374115460195},"departamento":{"id":"66154","nombre":"San Carlos"},"funcion":"CABECERA_DEPARTAMENTO","id":"66154040","municipio":{"id":"660392","nombre":"San Carlos"},"nombre":"San Carlos","provincia":{"id":"66","nombre":"Salta"}},{"categoria":"Localidad simple","centroide":{"lat":-22.2625708057672,"lon":-64.9993425915289},"departamento":{"id":"66161","nombre":"Santa Victoria"},"funcion":null,"id":"66161010","municipio":{"id":"660413","nombre":"Santa Victoria Oeste"},"nombre":"Acoyte","provincia":{"id":"66","nombre":"Salta"}},{"categoria":"Localidad simple","centroide":{"lat":-22.4282266803066,"lon":-65.1454049664521},"departamento":{"id":"66161","nombre":"Santa Victoria"},"funcion":null,"id":"66161020","municipio":{"id":"660406","nombre":"Nazareno"},"nombre":"Campo La Cruz","provincia":{"id":"66","nombre":"Salta"}},{"categoria":"Localidad simple","centroide":{"lat":-22.2528953049178,"lon":-64.6816676603736},"departamento":{"id":"66161","nombre":"Santa Victoria"},"funcion":null,"id":"66161030","municipio":{"id":"660399","nombre":"Los Toldos"},"nombre":"Los Toldos","provincia":{"id":"66","nombre":"Salta"}},{"categoria":"Localidad simple","centroide":{"lat":-22.4818544506086,"lon":-65.0949733414157},"departamento":{"id":"66161","nombre":"Santa Victoria"},"funcion":null,"id":"66161040","municipio":{"id":"660406","nombre":"Nazareno"},"nombre":"Nazareno","provincia":{"id":"66","nombre":"Salta"}},{"categoria":"Localidad simple","centroide":{"lat":-22.4336266127546,"lon":-65.0678957138661},"departamento":{"id":"66161","nombre":"Santa Victoria"},"funcion":null,"id":"66161050","municipio":{"id":"660406","nombre":"Nazareno"},"nombre":"Poscaya","provincia":{"id":"66","nombre":"Salta"}},{"categoria":"Localidad simple","centroide":{"lat":-22.50900544813,"lon":-65.1012423839061},"departamento":{"id":"66161","nombre":"Santa Victoria"},"funcion":null,"id":"66161060","municipio":{"id":"660406","nombre":"Nazareno"},"nombre":"San Marcos","provincia":{"id":"66","nombre":"Salta"}},{"categoria":"Localidad simple","centroide":{"lat":-22.2294615004585,"lon":-64.9503255468472},"departamento":{"id":"66161","nombre":"Santa Victoria"},"funcion":"CABECERA_DEPARTAMENTO","id":"66161070","municipio":{"id":"660413","nombre":"Santa Victoria Oeste"},"nombre":"Santa Victoria","provincia":{"id":"66","nombre":"Salta"}}],"parametros":{"max":600,"provincia":["66"]},"total":130}