{"cantidad":85,"inicio":0,"localidades_censales":[{"categoria":"Localidad simple","centroide":{"lat":-32.0607491134468,"lon":-65.8276913716033},"departamento":{"id":"74007","nombre":"Ayacucho"},"funcion":null,"id":"74007010","municipio":{"id":"740007","nombre":"Candelaria"},"nombre":"Candelaria","provincia":{"id":"74","nombre":"San Luis"}},{"categoria":"Localidad simple","centroide":{"lat":-32.487221446504,"lon":-66.0539126200252},"departamento":{"id":"74007","nombre":"Ayacucho"},"funcion":null,"id":"74007030","municipio":{"id":"746007","nombre":"Leandro N. Alem"},"nombre":"Leandro N. Alem","provincia":{"id":"74","nombre":"San Luis"}},{"categoria":"Localidad simple","centroide":{"lat":-32.3660459650745,"lon":-65.9425521623483},"departamento":{"id":"74007","nombre":"Ayacucho"},"funcion":null,"id":"74007040","municipio":{"id":"740014","nombre":"Lujan"},"nombre":"Luján","provincia":{"id":"74","nombre":"San Luis"}},{"categoria":"Localidad simple","centroide":{"lat":-32.2330822365033,"lon":-65.8056329969317},"departamento":{"id":"74007","nombre":"Ayacucho"},"funcion":null,"id":"74007050","municipio":{"id":"740021","nombre":"Quines"},"nombre":"Quines","provincia":{"id":"74","nombre":"San Luis"}},{"categoria":"Localidad simple","centroide":{"lat":-32.6006392247111,"lon":-66.1273702635842},"departamento":{"id":"74007","nombre":"Ayacucho"},"funcion":"CABECERA_DEPARTAMENTO","id":"74007070","municipio":{"id":"740028","nombre":"San Francisco"},"nombre":"San Francisco del Monte de Oro","provincia":{"id":"74","nombre":"San Luis"}},{"categoria":"Localidad simple","centroide":{"lat":-32.8619918957824,"lon":-66.8506529764617},"departamento":{"id":"74014","nombre":"Belgrano"},"funcion":null,"id":"74014010","municipio":{"id":"746014","nombre":"La Calera"},"nombre":"La Calera","provincia":{"id":"74","nombre":"San Luis"}},{"categoria":"Localidad simple","centroide":{"lat":-32.9173752831041,"lon":-66.3257602058348},"departamento":{"id":"74014","nombre":"Belgrano"},"funcion":null,"id":"74014020","municipio":{"id":"746021","nombre":"Nogoli"},"nombre":"Nogolí","provincia":{"id":"74","nombre":"San Luis"}},{"categoria":"Localidad simple","centroide":{"lat":-33.0161741932683,"lon":-66.2920464806382},"departamento":{"id":"74014","nombre":"Belgrano"},"funcion":null,"id":"74014030","municipio":{"id":"746028","nombre":"V, de la Quebrada"},"nombre":"Villa de la Quebrada","provincia":{"id":"74","nombre":"San Luis"}},{"categoria":"Localidad simple","centroide":{"lat":-32.6661925630758,"lon":-66.4524010178082},"departamento":{"id":"74014","nombre":"Belgrano"},"funcion":"CABECERA_DEPARTAMENTO","id":"74014040","municipio":{"id":"740035","nombre":"V, Gral, Roca"},"nombre":"Villa General Roca","provincia":{"id":"74","nombre":"San Luis"}},{"categoria":"Localidad simple","centroide":{"lat":-32.8128571637146,"lon":-66.0932327577628},"departamento":{"id":"74021","nombre":"Coronel Pringles"},"funcion":null,"id":"74021010","municipio":{"id":"746035","nombre":"Carolina"},"nombre":"Carolina","provincia":{"id":"74","nombre":"San Luis"}},{"categoria":"Componente de localidad compuesta","centroide":{"lat":-33.1082715280981,"lon":-66.063371211902},"departamento":{"id":"74021","nombre":"Coronel Pringles"},"funcion":null,"id":"74021020","municipio":{"id":"746042","nombre":"El Trapiche"},"nombre":"El Trapiche","provincia":{"id":"74","nombre":"San Luis"}},{"categoria":"Localidad simple","centroide":{"lat":-33.1905465526598,"lon":-66.1527985566352},"departamento":{"id":"74021","nombre":"Coronel Pringles"},"funcion":null,"id":"74021025","municipio":{"id":"740038","nombre":"Estancia Grande"},"nombre":"Estancia Grande","provincia":{"id":"74","nombre":"San Luis"}},{"categoria":"Localidad simple","centroide":{"lat":-33.502087069887,"lon":-65.7926477789763},"departamento":{"id":"74021","nombre":"Coronel Pringles"},"funcion":null,"id":"74021030","municipio":{"id":"746049","nombre":"Fraga"},"nombre":"Fraga","provincia":{"id":"74","nombre":"San Luis"}},{"categoria":"Localidad simple","centroide":{"lat":-33.157161301266,"lon":-66.0131877714641},"departamento":{"id":"74021","nombre":"Coronel Pringles"},"funcion":null,"id":"74021040","municipio":{"id":null,"nombre":null},"nombre":"La Bajada","provincia":{"id":"74","nombre":"San Luis"}},{"categoria":"Localidad simple","centroide":{"lat":-33.1167587248711,"lon":-66.0020090018267},"departamento":{"id":"74021","nombre":"Coronel Pringles"},"funcion":null,"id":"74021050","municipio":{"id":"746042","nombre":"El Trapiche"},"nombre":"La Florida","provincia":{"id":"74","nombre":"San Luis"}},{"categoria":"Localidad simple","centroide":{"lat":-33.0544376204479,"lon":-65.62269821015},"departamento":{"id":"74021","nombre":"Coronel Pringles"},"funcion":"CABECERA_DEPARTAMENTO","id":"74021060","municipio":{"id":"740042","nombre":"La Toma"},"nombre":"La Toma","provincia":{"id":"74","nombre":"San Luis"}},{"categoria":"Localidad simple","centroide":{"lat":-33.0964304439761,"lon":-65.990838382791},"departamento":{"id":"74021","nombre":"Coronel Pringles"},"funcion":null,"id":"74021070","municipio":{"id":"746042","nombre":"El Trapiche"},"nombre":"Riocito","provincia":{"id":"74","nombre":"San Luis"}},{"categoria":"Componente de localidad compuesta","centroide":{"lat":-33.0485046022503,"lon":-66.0717543089664},"departamento":{"id":"74021","nombre":"Coronel Pringles"},"funcion":null,"id":"74021080","municipio":{"id":"746042","nombre":"El Trapiche"},"nombre":"Río Grande","provincia":{"id":"74","nombre":"San Luis"}},{"categoria":"Localidad simple","centroide":{"lat":-33.2005664915694,"lon":-65.8531363375249},"departamento":{"id":"74021","nombre":"Coronel Pringles"},"funcion":null,"id":"74021090","municipio":{"id":"746063","nombre":"Saladillo"},"nombre":"Saladillo","provincia":{"id":"74","nombre":"San Luis"}},{"categoria":"Localidad simple","centroide":{"lat":-32.5607275180287,"lon":-65.2452806076649},"departamento":{"id":"74028","nombre":"Chacabuco"},"funcion":"CABECERA_DEPARTAMENTO","id":"74028010","municipio":{"id":"740049","nombre":"Concaran"},"nombre":"Concarán","provincia":{"id":"74","nombre":"San Luis"}},{"categoria":"Localidad simple","centroide":{"lat":-32.5076504245814,"lon":-64.9869655159434},"departamento":{"id":"74028","nombre":"Chacabuco"},"funcion":null,"id":"74028020","municipio":{"id":"746070","nombre":"Cortaderas"},"nombre":"Cortaderas","provincia":{"id":"74","nombre":"San Luis"}},{"categoria":"Localidad simple","centroide":{"lat":-32.9168215937221,"lon":-65.3755476812695},"departamento":{"id":"74028","nombre":"Chacabuco"},"funcion":null,"id":"74028030","municipio":{"id":"740056","nombre":"Naschel"},"nombre":"Naschel","provincia":{"id":"74","nombre":"San Luis"}},{"categoria":"Localidad simple","centroide":{"lat":-32.6786405437001,"lon":-64.9881795223679},"departamento":{"id":"74028","nombre":"Chacabuco"},"funcion":null,"id":"74028040","municipio":{"id":"746077","nombre":"Papagayos"},"nombre":"Papagayos","provincia":{"id":"74","nombre":"San Luis"}},{"categoria":"Localidad simple","centroide":{"lat":-32.7717680736652,"lon":-65.3637605007649},"departamento":{"id":"74028","nombre":"Chacabuco"},"funcion":null,"id":"74028050","municipio":{"id":"746084","nombre":"Renca"},"nombre":"Renca","provincia":{"id":"74","nombre":"San Luis"}},{"categoria":"Localidad simple","centroide":{"lat":-32.658342389353,"lon":-65.3080920411456},"departamento":{"id":"74028","nombre":"Chacabuco"},"funcion":null,"id":"74028060","municipio":{"id":"746091","nombre":"San Pablo"},"nombre":"San Pablo","provincia":{"id":"74","nombre":"San Luis"}},{"categoria":"Localidad simple","centroide":{"lat":-32.7329281106581,"lon":-65.2915274383295},"departamento":{"id":"74028","nombre":"Chacabuco"},"funcion":null,"id":"74028070","municipio":{"id":"740063","nombre":"Tilisarao"},"nombre":"Tilisarao","provincia":{"id":"74","nombre":"San Luis"}},{"categoria":"Localidad simple","centroide":{"lat":-32.9411267835778,"lon":-65.0394664526979},"departamento":{"id":"74028","nombre":"Chacabuco"},"funcion":null,"id":"74028080","municipio":{"id":"746098","nombre":"Villa del Carmen"},"nombre":"Villa del Carmen","provincia":{"id":"74","nombre":"San Luis"}},{"categoria":"Localidad simple","centroide":{"lat":-32.6175433008771,"lon":-64.9809087535547},"departamento":{"id":"74028","nombre":"Chacabuco"},"funcion":null,"id":"74028090","municipio":{"id":"746105","nombre":"Villa Larca"},"nombre":"Villa Larca","provincia":{"id":"74","nombre":"San Luis"}},{"categoria":"Localidad simple","centroide":{"lat":-33.6132806299836,"lon":-65.2717502963014},"departamento":{"id":"74035","nombre":"General Pedernera"},"funcion":null,"id":"74035010","municipio":{"id":"749119","nombre":"Juan Jorba"},"nombre":"Juan Jorba","provincia":{"id":"74","nombre":"San Luis"}},{"categoria":"Localidad simple","centroide":{"lat":-33.2811132563767,"lon":-65.6145766804084},"departamento":{"id":"74035","nombre":"General Pedernera"},"funcion":null,"id":"74035020","municipio":{"id":"746126","nombre":"Juan Llerena"},"nombre":"Juan Llerena","provincia":{"id":"74","nombre":"San Luis"}},{"categoria":"Localidad simple","centroide":{"lat":-33.8585834476817,"lon":-65.1870408754728},"departamento":{"id":"74035","nombre":"General Pedernera"},"funcion":null,"id":"74035030","municipio":{"id":"740070","nombre":"Justo Daract"},"nombre":"Justo Daract","provincia":{"id":"74","nombre":"San Luis"}},{"categoria":"Localidad simple","centroide":{"lat":-33.1429537099622,"lon":-65.0861306811865},"departamento":{"id":"74035","nombre":"General Pedernera"},"funcion":null,"id":"74035040","municipio":{"id":"746133","nombre":"La Punilla"},"nombre":"La Punilla","provincia":{"id":"74","nombre":"San Luis"}},{"categoria":"Localidad simple","centroide":{"lat":-33.8221476840744,"lon":-65.4237934358157},"departamento":{"id":"74035","nombre":"General Pedernera"},"funcion":null,"id":"74035050","municipio":{"id":"746140","nombre":"Lavaisse"},"nombre":"Lavaisse","provincia":{"id":"74","nombre":"San Luis"}},{"categoria":"Localidad simple","centroide":{"lat":-34.6086190002894,"lon":-65.7348529983919},"departamento":{"id":"74035","nombre":"General Pedernera"},"funcion":null,"id":"74035055","municipio":{"id":"740073","nombre":"Ranqueles"},"nombre":"Nación Ranquel","provincia":{"id":"74","nombre":"San Luis"}},{"categoria":"Localidad simple","centroide":{"lat":-33.2119853031031,"lon":-65.4927334484496},"departamento":{"id":"74035","nombre":"General Pedernera"},"funcion":null,"id":"74035060","municipio":{"id":"746112","nombre":"San Jose del Morro"},"nombre":"San José del Morro","provincia":{"id":"74","nombre":"San Luis"}},{"categoria":"Localidad simple","centroide":{"lat":-33.6738636408858,"lon":-65.4624765290195},"departamento":{"id":"74035","nombre":"General Pedernera"},"funcion":"CABECERA_DEPARTAMENTO","id":"74035070","municipio":{"id":"740077","nombre":"Villa Mercedes"},"nombre":"Villa Mercedes","provincia":{"id":"74","nombre":"San Luis"}},{"categoria":"Localidad simple","centroide":{"lat":-33.722961850163,"lon":-65.3814163660133},"departamento":{"id":"74035","nombre":"General Pedernera"},"funcion":null,"id":"74035080","municipio":{"id":null,"nombre":null},"nombre":"Villa Reynolds","provincia":{"id":"74","nombre":"San Luis"}},{"categoria":"Localidad simple","centroide":{"lat":-33.84292794921,"lon":-65.2147610955176},"departamento":{"id":"74035","nombre":"General Pedernera"},"funcion":null,"id":"74035090","municipio":{"id":"740070","nombre":"Justo Daract"},"nombre":"Villa Salles","provincia":{"id":"74","nombre":"San Luis"}},{"categoria":"Localidad simple","centroide":{"lat":-35.6746450244219,"lon":-65.4244230509371},"departamento":{"id":"74042","nombre":"Gobernador Dupuy"},"funcion":null,"id":"74042010","municipio":{"id":"746147","nombre":"Anchorena"},"nombre":"Anchorena","provincia":{"id":"74","nombre":"San Luis"}},{"categoria":"Localidad simple","centroide":{"lat":-35.7229145031177,"lon":-65.3187210360081},"departamento":{"id":"74042","nombre":"Gobernador Dupuy"},"funcion":null,"id":"74042020","municipio":{"id":"746154","nombre":"Arizona"},"nombre":"Arizona","provincia":{"id":"74","nombre":"San Luis"}},{"categoria":"Localidad simple","centroide":{"lat":-35.1448484513353,"lon":-65.5676652450981},"departamento":{"id":"74042","nombre":"Gobernador Dupuy"},"funcion":null,"id":"74042030","municipio":{"id":"746161","nombre":"Bagual"},"nombre":"Bagual","provincia":{"id":"74","nombre":"San Luis"}},{"categoria":"Localidad simple","centroide":{"lat":-34.7755332557226,"lon":-65.6862987148176},"departamento":{"id":"74042","nombre":"Gobernador Dupuy"},"funcion":null,"id":"74042040","municipio":{"id":"746168","nombre":"Batavia"},"nombre":"Batavia","provincia":{"id":"74","nombre":"San Luis"}},{"categoria":"Localidad simple","centroide":{"lat":-34.7582787968944,"lon":-65.2503691694475},"departamento":{"id":"74042","nombre":"Gobernador Dupuy"},"funcion":"CABECERA_DEPARTAMENTO","id":"74042050","municipio":{"id":"740084","nombre":"Buena Esperanza"},"nombre":"Buena Esperanza","provincia":{"id":"74","nombre":"San Luis"}},{"categoria":"Localidad simple","centroide":{"lat":-34.769756515675,"lon":-65.522934517578},"departamento":{"id":"74042","nombre":"Gobernador Dupuy"},"funcion":null,"id":"74042060","municipio":{"id":"749175","nombre":"Fortin el Patria"},"nombre":"Fortín El Patria","provincia":{"id":"74","nombre":"San Luis"}},{"categoria":"Localidad simple","centroide":{"lat":-35.1282918635603,"lon":-65.3818218917708},"departamento":{"id":"74042","nombre":"Gobernador Dupuy"},"funcion":null,"id":"74042070","municipio":{"id":"749182","nombre":"Fortuna"},"nombre":"Fortuna","provincia":{"id":"74","nombre":"San Luis"}},{"categoria":"Localidad simple","centroide":{"lat":-35.2127003045126,"lon":-66.3264252245578},"departamento":{"id":"74042","nombre":"Gobernador Dupuy"},"funcion":null,"id":"74042080","municipio":{"id":null,"nombre":null},"nombre":"La Maroma","provincia":{"id":"74","nombre":"San Luis"}},{"categoria":"Localidad simple","centroide":{"lat":-35.8808971047928,"lon":-66.4450142548098},"departamento":{"id":"74042","nombre":"Gobernador Dupuy"},"funcion":null,"id":"74042090","municipio":{"id":null,"nombre":null},"nombre":"Los Overos","provincia":{"id":"74","nombre":"San Luis"}},{"categoria":"Localidad simple","centroide":{"lat":-35.7111681131223,"lon":-66.3525275844943},"departamento":{"id":"74042","nombre":"Gobernador Dupuy"},"funcion":null,"id":"74042100","municipio":{"id":null,"nombre":null},"nombre":"Martín de Loyola","provincia":{"id":"74","nombre":"San Luis"}},{"categoria":"Localidad simple","centroide":{"lat":-34.7833678660504,"lon":-66.1701498297947},"departamento":{"id":"74042","nombre":"Gobernador Dupuy"},"funcion":null,"id":"74042110","municipio":{"id":null,"nombre":null},"nombre":"Nahuel Mapá","provincia":{"id":"74","nombre":"San Luis"}},{"categoria":"Localidad simple","centroide":{"lat":-34.7726733665409,"lon":-66.5862788668642},"departamento":{"id":"74042","nombre":"Gobernador Dupuy"},"funcion":null,"id":"74042120","municipio":{"id":"746189","nombre":"Navia"},"nombre":"Navia","provincia":{"id":"74","nombre":"San Luis"}},{"categoria":"Localidad simple","centroide":{"lat":-35.1124747000615,"lon":-65.2532109154966},"departamento":{"id":"74042","nombre":"Gobernador Dupuy"},"funcion":null,"id":"74042130","municipio":{"id":"746196","nombre":"Nueva Galia"},"nombre":"Nueva Galia","provincia":{"id":"74","nombre":"San Luis"}},{"categoria":"Localidad simple","centroide":{"lat":-35.1549261061197,"lon":-65.9424468511458},"departamento":{"id":"74042","nombre":"Gobernador Dupuy"},"funcion":null,"id":"74042140","municipio":{"id":"740091","nombre":"Union"},"nombre":"Unión","provincia":{"id":"74","nombre":"San Luis"}},{"categoria":"Localidad simple","centroide":{"lat":-32.4102495120789,"lon":-65.0113926769819},"departamento":{"id":"74049","nombre":"Junín"},"funcion":null,"id":"74049010","municipio":{"id":"746203","nombre":"Carpinteria"},"nombre":"Carpintería","provincia":{"id":"74","nombre":"San Luis"}},{"categoria":"Localidad simple","centroide":{"lat":-32.3851963369856,"lon":-64.9859436108737},"departamento":{"id":"74049","nombre":"Junín"},"funcion":null,"id":"74049020","municipio":{"id":"740105","nombre":"Merlo"},"nombre":"Cerro de Oro","provincia":{"id":"74","nombre":"San Luis"}},{"categoria":"Localidad simple","centroide":{"lat":-32.0621151953791,"lon":-65.3496815467824},"departamento":{"id":"74049","nombre":"Junín"},"funcion":null,"id":"74049030","municipio":{"id":"746210","nombre":"Lafinur"},"nombre":"Lafinur","provincia":{"id":"74","nombre":"San Luis"}},{"categoria":"Localidad simple","centroide":{"lat":-32.0257513048361,"lon":-65.3749361476641},"departamento":{"id":"74049","nombre":"Junín"},"funcion":null,"id":"74049040","municipio":{"id":null,"nombre":null},"nombre":"Los Cajones","provincia":{"id":"74","nombre":"San Luis"}},{"categoria":"Localidad simple","centroide":{"lat":-32.4395447509138,"lon":-65.0106822684225},"departamento":{"id":"74049","nombre":"Junín"},"funcion":null,"id":"74049050","municipio":{"id":"746217","nombre":"Los Molles"},"nombre":"Los Molles","provincia":{"id":"74","nombre":"San Luis"}},{"categoria":"Localidad simple","centroide":{"lat":-32.3425391142336,"lon":-65.0141372032908},"departamento":{"id":"74049","nombre":"Junín"},"funcion":null,"id":"74049060","municipio":{"id":"740105","nombre":"Merlo"},"nombre":"Merlo","provincia":{"id":"74","nombre":"San Luis"}},{"categoria":"Localidad simple","centroide":{"lat":-32.3423081509941,"lon":-65.2071206614116},"departamento":{"id":"74049","nombre":"Junín"},"funcion":"CABECERA_DEPARTAMENTO","id":"74049070","municipio":{"id":"740098","nombre":"Sta Rosa del Conlara"},"nombre":"Santa Rosa del Conlara","provincia":{"id":"74","nombre":"San Luis"}},{"categoria":"Localidad simple","centroide":{"lat":-32.2481203088315,"lon":-65.5838734087874},"departamento":{"id":"74049","nombre":"Junín"},"funcion":null,"id":"74049080","municipio":{"id":"746224","nombre":"Talita"},"nombre":"Talita","provincia":{"id":"74","nombre":"San Luis"}},{"categoria":"Localidad simple","centroide":{"lat":-33.8425029072214,"lon":-66.1375993056552},"departamento":{"id":"74056","nombre":"Juan Martín de Pueyrredón"},"funcion":null,"id":"74056010","municipio":{"id":null,"nombre":null},"nombre":"Alto Pelado","provincia":{"id":"74","nombre":"San Luis"}},{"categoria":"Localidad simple","centroide":{"lat":-33.4306363842929,"lon":-66.9279669116981},"departamento":{"id":"74056","nombre":"Juan Martín de Pueyrredón"},"funcion":null,"id":"74056020","municipio":{"id":"746238","nombre":"Alto Pencoso"},"nombre":"Alto Pencoso","provincia":{"id":"74","nombre":"San Luis"}},{"categoria":"Localidad simple","centroide":{"lat":-33.3432695635017,"lon":-66.626047423873},"departamento":{"id":"74056","nombre":"Juan Martín de Pueyrredón"},"funcion":null,"id":"74056030","municipio":{"id":"746245","nombre":"Balde"},"nombre":"Balde","provincia":{"id":"74","nombre":"San Luis"}},{"categoria":"Localidad simple","centroide":{"lat":-33.757734110106,"lon":-66.6459600305752},"departamento":{"id":"74056","nombre":"Juan Martín de Pueyrredón"},"funcion":null,"id":"74056040","municipio":{"id":"746252","nombre":"Beazley"},"nombre":"Beazley","provincia":{"id":"74","nombre":"San Luis"}},{"categoria":"Localidad simple","centroide":{"lat":-33.8576584773376,"lon":-66.3696150667544},"departamento":{"id":"74056","nombre":"Juan Martín de Pueyrredón"},"funcion":null,"id":"74056050","municipio":{"id":"746280","nombre":"Zanjitas"},"nombre":"Cazador","provincia":{"id":"74","nombre":"San Luis"}},{"categoria":"Localidad simple","centroide":{"lat":-33.3959968949714,"lon":-66.7463973832244},"departamento":{"id":"74056","nombre":"Juan Martín de Pueyrredón"},"funcion":null,"id":"74056060","municipio":{"id":null,"nombre":null},"nombre":"Chosmes","provincia":{"id":"74","nombre":"San Luis"}},{"categoria":"Componente de localidad compuesta","centroide":{"lat":-33.4004585255775,"lon":-67.148082207766},"departamento":{"id":"74056","nombre":"Juan Martín de Pueyrredón"},"funcion":null,"id":"74056070","municipio":{"id":"740108","nombre":"Desaguadero"},"nombre":"Desaguadero","provincia":{"id":"74","nombre":"San Luis"}},{"categoria":"Localidad simple","centroide":{"lat":-33.2512966067626,"lon":-66.1877022971966},"departamento":{"id":"74056","nombre":"Juan Martín de Pueyrredón"},"funcion":null,"id":"74056080","municipio":{"id":"746259","nombre":"El Volcan"},"nombre":"El Volcán","provincia":{"id":"74","nombre":"San Luis"}},{"categoria":"Localidad simple","centroide":{"lat":-33.3986583419719,"lon":-67.0274295478726},"departamento":{"id":"74056","nombre":"Juan Martín de Pueyrredón"},"funcion":null,"id":"74056090","municipio":{"id":"740108","nombre":"Desaguadero"},"nombre":"Jarilla","provincia":{"id":"74","nombre":"San Luis"}},{"categoria":"Componente de localidad compuesta","centroide":{"lat":-33.2890410607963,"lon":-66.2549506651664},"departamento":{"id":"74056","nombre":"Juan Martín de Pueyrredón"},"funcion":null,"id":"74056100","municipio":{"id":"740119","nombre":"Juana Koslay"},"nombre":"Juana Koslay","provincia":{"id":"74","nombre":"San Luis"}},{"categoria":"Localidad simple","centroide":{"lat":-33.1816571259341,"lon":-66.313607690249},"departamento":{"id":"74056","nombre":"Juan Martín de Pueyrredón"},"funcion":null,"id":"74056105","municipio":{"id":"749007","nombre":"La Punta"},"nombre":"La Punta","provincia":{"id":"74","nombre":"San Luis"}},{"categoria":"Localidad simple","centroide":{"lat":-33.6458915525894,"lon":-66.9934495323611},"departamento":{"id":"74056","nombre":"Juan Martín de Pueyrredón"},"funcion":null,"id":"74056110","municipio":{"id":null,"nombre":null},"nombre":"Mosmota","provincia":{"id":"74","nombre":"San Luis"}},{"categoria":"Localidad simple","centroide":{"lat":-33.2187787091432,"lon":-66.2307288183005},"departamento":{"id":"74056","nombre":"Juan Martín de Pueyrredón"},"funcion":null,"id":"74056120","municipio":{"id":"746266","nombre":"P. de los Funes"},"nombre":"Potrero de los Funes","provincia":{"id":"74","nombre":"San Luis"}},{"categoria":"Localidad simple","centroide":{"lat":-33.501125039306,"lon":-66.6514406177997},"departamento":{"id":"74056","nombre":"Juan Martín de Pueyrredón"},"funcion":null,"id":"74056130","municipio":{"id":"746245","nombre":"Balde"},"nombre":"Salinas del Bebedero","provincia":{"id":"74","nombre":"San Luis"}},{"categoria":"Localidad simple","centroide":{"lat":-33.1383053611749,"lon":-66.5166859326585},"departamento":{"id":"74056","nombre":"Juan Martín de Pueyrredón"},"funcion":null,"id":"74056140","municipio":{"id":"746273","nombre":"San Jeronimo"},"nombre":"San Jerónimo","provincia":{"id":"74","nombre":"San Luis"}},{"categoria":"Componente de localidad compuesta","centroide":{"lat":-33.3023139659883,"lon":-66.3360877357358},"departamento":{"id":"74056","nombre":"Juan Martín de Pueyrredón"},"funcion":"CAPITAL_PROVINCIA","id":"74056150","municipio":{"id":"740133","nombre":"San Luis"},"nombre":"San Luis","provincia":{"id":"74","nombre":"San Luis"}},{"categoria":"Localidad simple","centroide":{"lat":-33.8022746844103,"lon":-66.415462549085},"departamento":{"id":"74056","nombre":"Juan Martín de Pueyrredón"},"funcion":null,"id":"74056160","municipio":{"id":"746280","nombre":"Zanjitas"},"nombre":"Zanjitas","provincia":{"id":"74","nombre":"San Luis"}},{"categoria":"Localidad simple","centroide":{"lat":-32.7975027746268,"lon":-65.7568974316301},"departamento":{"id":"74063","nombre":"Libertador General San Martín"},"funcion":null,"id":"74063010","municipio":{"id":"746287","nombre":"Las Vertientes"},"nombre":"La Vertiente","provincia":{"id":"74","nombre":"San Luis"}},{"categoria":"Localidad simple","centroide":{"lat":-32.3763580460129,"lon":-65.5012041382004},"departamento":{"id":"74063","nombre":"Libertador General San Martín"},"funcion":null,"id":"74063020","municipio":{"id":"746294","nombre":"Las Aguadas"},"nombre":"Las Aguadas","provincia":{"id":"74","nombre":"San Luis"}},{"categoria":"Localidad simple","centroide":{"lat":-32.5435132286539,"lon":-65.7446386901218},"departamento":{"id":"74063","nombre":"Libertador General San Martín"},"funcion":null,"id":"74063030","municipio":{"id":"746301","nombre":"Las Chacras"},"nombre":"Las Chacras","provincia":{"id":"74","nombre":"San Luis"}},{"categoria":"Localidad simple","centroide":{"lat":-32.6298120296294,"lon":-65.551144128608},"departamento":{"id":"74063","nombre":"Libertador General San Martín"},"funcion":null,"id":"74063040","municipio":{"id":"746308","nombre":"Las Lagunas"},"nombre":"Las Lagunas","provincia":{"id":"74","nombre":"San Luis"}},{"categoria":"Localidad simple","centroide":{"lat":-32.8769737284291,"lon":-65.6345301522077},"departamento":{"id":"74063","nombre":"Libertador General San Martín"},"funcion":null,"id":"74063050","municipio":{"id":"746315","nombre":"Paso Grande"},"nombre":"Paso Grande","provincia":{"id":"74","nombre":"San Luis"}},{"categoria":"Localidad simple","centroide":{"lat":-32.6714012444881,"lon":-65.6626272217676},"departamento":{"id":"74063","nombre":"Libertador General San Martín"},"funcion":null,"id":"74063060","municipio":{"id":null,"nombre":null},"nombre":"Potrerillo","provincia":{"id":"74","nombre":"San Luis"}},{"categoria":"Localidad simple","centroide":{"lat":-32.4132690463753,"lon":-65.6759306690121},"departamento":{"id":"74063","nombre":"Libertador General San Martín"},"funcion":"CABECERA_DEPARTAMENTO","id":"74063070","municipio":{"id":"740140","nombre":"San Martin"},"nombre":"San Martín","provincia":{"id":"74","nombre":"San Luis"}},{"categoria":"Localidad simple","centroide":{"lat":-32.5339640778182,"lon":-65.6477042790939},"departamento":{"id":"74063","nombre":"Libertador General San Martín"},"funcion":null,"id":"74063080","municipio":{"id":"746322","nombre":"V, de Praga"},"nombre":"Villa de Praga","provincia":{"id":"74","nombre":"San Luis"}}],"parametros":{"max":600,"provincia":["74"]},"total":85}