{"cantidad":165,"inicio":0,"localidades_censales":[{"categoria":"Localidad simple","centroide":{"lat":-29.5347584629763,"lon":-62.2668040651927},"departamento":{"id":"86007","nombre":"Aguirre"},"funcion":null,"id":"86007010","municipio":{"id":null,"nombre":null},"nombre":"Argentina","provincia":{"id":"86","nombre":"Santiago del Estero"}},{"categoria":"Localidad simple","centroide":{"lat":-28.9529394000082,"lon":-62.8005346895448},"departamento":{"id":"86007","nombre":"Aguirre"},"funcion":null,"id":"86007020","municipio":{"id":null,"nombre":null},"nombre":"Casares","provincia":{"id":"86","nombre":"Santiago del Estero"}},{"categoria":"Localidad simple","centroide":{"lat":-29.3480281688774,"lon":-62.4374715654784},"departamento":{"id":"86007","nombre":"Aguirre"},"funcion":null,"id":"86007030","municipio":{"id":null,"nombre":null},"nombre":"Malbrán","provincia":{"id":"86","nombre":"Santiago del Estero"}},{"categoria":"Localidad simple","centroide":{"lat":-29.1446444838565,"lon":-62.6541996550291},"departamento":{"id":"86007","nombre":"Aguirre"},"funcion":"CABECERA_DEPARTAMENTO","id":"86007040","municipio":{"id":null,"nombre":null},"nombre":"Villa General Mitre","provincia":{"id":"86","nombre":"Santiago del Estero"}},{"categoria":"Localidad simple","centroide":{"lat":-26.581588722034,"lon":-62.8521376221858},"departamento":{"id":"86014","nombre":"Alberdi"},"funcion":"CABECERA_DEPARTAMENTO","id":"86014010","municipio":{"id":null,"nombre":null},"nombre":"Campo Gallo","provincia":{"id":"86","nombre":"Santiago del Estero"}},{"categoria":"Localidad simple","centroide":{"lat":-26.3836121510521,"lon":-61.8096460345963},"departamento":{"id":"86014","nombre":"Alberdi"},"funcion":null,"id":"86014020","municipio":{"id":null,"nombre":null},"nombre":"Coronel Manuel L. Rico","provincia":{"id":"86","nombre":"Santiago del Estero"}},{"categoria":"Localidad simple","centroide":{"lat":-26.7266820556935,"lon":-62.7208021510899},"departamento":{"id":"86014","nombre":"Alberdi"},"funcion":null,"id":"86014030","municipio":{"id":null,"nombre":null},"nombre":"Donadeu","provincia":{"id":"86","nombre":"Santiago del Estero"}},{"categoria":"Localidad simple","centroide":{"lat":-26.671433914307,"lon":-61.8174308800717},"departamento":{"id":"86014","nombre":"Alberdi"},"funcion":null,"id":"86014040","municipio":{"id":null,"nombre":null},"nombre":"Sachayoj","provincia":{"id":"86","nombre":"Santiago del Estero"}},{"categoria":"Localidad simple","centroide":{"lat":-26.6920901207094,"lon":-63.5584892838705},"departamento":{"id":"86014","nombre":"Alberdi"},"funcion":null,"id":"86014050","municipio":{"id":null,"nombre":null},"nombre":"Santos Lugares","provincia":{"id":"86","nombre":"Santiago del Estero"}},{"categoria":"Localidad simple","centroide":{"lat":-28.4946171651834,"lon":-63.9414267036415},"departamento":{"id":"86021","nombre":"Atamisqui"},"funcion":null,"id":"86021010","municipio":{"id":null,"nombre":null},"nombre":"Estación Atamisqui","provincia":{"id":"86","nombre":"Santiago del Estero"}},{"categoria":"Localidad simple","centroide":{"lat":-28.6499385815911,"lon":-63.787545374207},"departamento":{"id":"86021","nombre":"Atamisqui"},"funcion":null,"id":"86021020","municipio":{"id":null,"nombre":null},"nombre":"Medellín","provincia":{"id":"86","nombre":"Santiago del Estero"}},{"categoria":"Localidad simple","centroide":{"lat":-28.4939256027398,"lon":-63.8205160146802},"departamento":{"id":"86021","nombre":"Atamisqui"},"funcion":"CABECERA_DEPARTAMENTO","id":"86021030","municipio":{"id":null,"nombre":null},"nombre":"Villa Atamisqui","provincia":{"id":"86","nombre":"Santiago del Estero"}},{"categoria":"Localidad simple","centroide":{"lat":-28.603116660495,"lon":-62.951072903573},"departamento":{"id":"86028","nombre":"Avellaneda"},"funcion":null,"id":"86028010","municipio":{"id":null,"nombre":null},"nombre":"Colonia Dora","provincia":{"id":"86","nombre":"Santiago del Estero"}},{"categoria":"Localidad simple","centroide":{"lat":-28.4852360558267,"lon":-63.0697575257716},"departamento":{"id":"86028","nombre":"Avellaneda"},"funcion":"CABECERA_DEPARTAMENTO","id":"86028020","municipio":{"id":null,"nombre":null},"nombre":"Herrera","provincia":{"id":"86","nombre":"Santiago del Estero"}},{"categoria":"Localidad simple","centroide":{"lat":-28.6784711687351,"lon":-62.8846263455873},"departamento":{"id":"86028","nombre":"Avellaneda"},"funcion":null,"id":"86028030","municipio":{"id":null,"nombre":null},"nombre":"Icaño","provincia":{"id":"86","nombre":"Santiago del Estero"}},{"categoria":"Localidad simple","centroide":{"lat":-28.3346445647531,"lon":-63.3436023986024},"departamento":{"id":"86028","nombre":"Avellaneda"},"funcion":null,"id":"86028040","municipio":{"id":null,"nombre":null},"nombre":"Lugones","provincia":{"id":"86","nombre":"Santiago del Estero"}},{"categoria":"Localidad simple","centroide":{"lat":-28.8166325823721,"lon":-62.8455339441355},"departamento":{"id":"86028","nombre":"Avellaneda"},"funcion":null,"id":"86028050","municipio":{"id":null,"nombre":null},"nombre":"Real Sayana","provincia":{"id":"86","nombre":"Santiago del Estero"}},{"categoria":"Localidad simple","centroide":{"lat":-28.4831042788772,"lon":-63.2790903120191},"departamento":{"id":"86028","nombre":"Avellaneda"},"funcion":null,"id":"86028060","municipio":{"id":null,"nombre":null},"nombre":"Villa Mailín","provincia":{"id":"86","nombre":"Santiago del Estero"}},{"categoria":"Localidad simple","centroide":{"lat":-27.2931336131427,"lon":-64.3790656722545},"departamento":{"id":"86035","nombre":"Banda"},"funcion":null,"id":"86035010","municipio":{"id":null,"nombre":null},"nombre":"Abra Grande","provincia":{"id":"86","nombre":"Santiago del Estero"}},{"categoria":"Localidad simple","centroide":{"lat":-27.6273165422381,"lon":-64.252782204773},"departamento":{"id":"86035","nombre":"Banda"},"funcion":null,"id":"86035020","municipio":{"id":null,"nombre":null},"nombre":"Antajé","provincia":{"id":"86","nombre":"Santiago del Estero"}},{"categoria":"Localidad simple","centroide":{"lat":-27.415006517686,"lon":-64.5005841049021},"departamento":{"id":"86035","nombre":"Banda"},"funcion":null,"id":"86035030","municipio":{"id":null,"nombre":null},"nombre":"Ardiles","provincia":{"id":"86","nombre":"Santiago del Estero"}},{"categoria":"Localidad simple","centroide":{"lat":-27.7093508468277,"lon":-64.0345634947704},"departamento":{"id":"86035","nombre":"Banda"},"funcion":null,"id":"86035040","municipio":{"id":null,"nombre":null},"nombre":"Cañada Escobar","provincia":{"id":"86","nombre":"Santiago del Estero"}},{"categoria":"Localidad simple","centroide":{"lat":-27.5090071798518,"lon":-64.4230093979117},"departamento":{"id":"86035","nombre":"Banda"},"funcion":null,"id":"86035050","municipio":{"id":null,"nombre":null},"nombre":"Chaupi Pozo","provincia":{"id":"86","nombre":"Santiago del Estero"}},{"categoria":"Localidad simple","centroide":{"lat":-27.5762755617113,"lon":-64.1322398015217},"departamento":{"id":"86035","nombre":"Banda"},"funcion":null,"id":"86035060","municipio":{"id":null,"nombre":null},"nombre":"Clodomira","provincia":{"id":"86","nombre":"Santiago del Estero"}},{"categoria":"Localidad simple","centroide":{"lat":-27.3875685641419,"lon":-64.296255139046},"departamento":{"id":"86035","nombre":"Banda"},"funcion":null,"id":"86035070","municipio":{"id":null,"nombre":null},"nombre":"Huyamampa","provincia":{"id":"86","nombre":"Santiago del Estero"}},{"categoria":"Localidad simple","centroide":{"lat":-27.4964060720214,"lon":-64.2315605665017},"departamento":{"id":"86035","nombre":"Banda"},"funcion":null,"id":"86035080","municipio":{"id":null,"nombre":null},"nombre":"La Aurora","provincia":{"id":"86","nombre":"Santiago del Estero"}},{"categoria":"Componente de localidad compuesta","centroide":{"lat":-27.7339063576954,"lon":-64.2389609885924},"departamento":{"id":"86035","nombre":"Banda"},"funcion":"CABECERA_DEPARTAMENTO","id":"86035090","municipio":{"id":null,"nombre":null},"nombre":"La Banda","provincia":{"id":"86","nombre":"Santiago del Estero"}},{"categoria":"Localidad simple","centroide":{"lat":-27.6984439320511,"lon":-64.2891593020827},"departamento":{"id":"86035","nombre":"Banda"},"funcion":null,"id":"86035100","municipio":{"id":null,"nombre":null},"nombre":"La Dársena","provincia":{"id":"86","nombre":"Santiago del Estero"}},{"categoria":"Localidad simple","centroide":{"lat":-27.6541808200018,"lon":-64.3550857252435},"departamento":{"id":"86035","nombre":"Banda"},"funcion":null,"id":"86035110","municipio":{"id":null,"nombre":null},"nombre":"Los Quiroga","provincia":{"id":"86","nombre":"Santiago del Estero"}},{"categoria":"Localidad simple","centroide":{"lat":-27.6278438576024,"lon":-64.3665478243818},"departamento":{"id":"86035","nombre":"Banda"},"funcion":null,"id":"86035120","municipio":{"id":null,"nombre":null},"nombre":"Los Soria","provincia":{"id":"86","nombre":"Santiago del Estero"}},{"categoria":"Localidad simple","centroide":{"lat":-27.6504840077902,"lon":-64.1912416790424},"departamento":{"id":"86035","nombre":"Banda"},"funcion":null,"id":"86035130","municipio":{"id":null,"nombre":null},"nombre":"Simbolar","provincia":{"id":"86","nombre":"Santiago del Estero"}},{"categoria":"Localidad simple","centroide":{"lat":-27.6966791825106,"lon":-64.171980690304},"departamento":{"id":"86035","nombre":"Banda"},"funcion":null,"id":"86035140","municipio":{"id":null,"nombre":null},"nombre":"Tramo 16","provincia":{"id":"86","nombre":"Santiago del Estero"}},{"categoria":"Localidad simple","centroide":{"lat":-27.724169959056,"lon":-64.119953835997},"departamento":{"id":"86035","nombre":"Banda"},"funcion":null,"id":"86035150","municipio":{"id":null,"nombre":null},"nombre":"Tramo 20","provincia":{"id":"86","nombre":"Santiago del Estero"}},{"categoria":"Localidad simple","centroide":{"lat":-28.8825052182773,"lon":-62.2661992861707},"departamento":{"id":"86042","nombre":"Belgrano"},"funcion":"CABECERA_DEPARTAMENTO","id":"86042010","municipio":{"id":null,"nombre":null},"nombre":"Bandera","provincia":{"id":"86","nombre":"Santiago del Estero"}},{"categoria":"Localidad simple","centroide":{"lat":-28.8813440964016,"lon":-61.8646065822},"departamento":{"id":"86042","nombre":"Belgrano"},"funcion":null,"id":"86042020","municipio":{"id":null,"nombre":null},"nombre":"Cuatro Bocas","provincia":{"id":"86","nombre":"Santiago del Estero"}},{"categoria":"Localidad simple","centroide":{"lat":-29.1249938081928,"lon":-61.9377330722992},"departamento":{"id":"86042","nombre":"Belgrano"},"funcion":null,"id":"86042030","municipio":{"id":null,"nombre":null},"nombre":"Fortín Inca","provincia":{"id":"86","nombre":"Santiago del Estero"}},{"categoria":"Localidad simple","centroide":{"lat":-28.9901980198517,"lon":-62.1274458413758},"departamento":{"id":"86042","nombre":"Belgrano"},"funcion":null,"id":"86042040","municipio":{"id":null,"nombre":null},"nombre":"Guardia Escolta","provincia":{"id":"86","nombre":"Santiago del Estero"}},{"categoria":"Localidad simple","centroide":{"lat":-27.7173434793387,"lon":-64.3318930408752},"departamento":{"id":"86049","nombre":"Capital"},"funcion":null,"id":"86049010","municipio":{"id":null,"nombre":null},"nombre":"El Deán","provincia":{"id":"86","nombre":"Santiago del Estero"}},{"categoria":"Localidad simple","centroide":{"lat":-27.9899319139286,"lon":-64.213355171484},"departamento":{"id":"86049","nombre":"Capital"},"funcion":null,"id":"86049020","municipio":{"id":null,"nombre":null},"nombre":"El Mojón","provincia":{"id":"86","nombre":"Santiago del Estero"}},{"categoria":"Componente de localidad compuesta","centroide":{"lat":-27.8750408217321,"lon":-64.2433909658935},"departamento":{"id":"86049","nombre":"Capital"},"funcion":null,"id":"86049030","municipio":{"id":null,"nombre":null},"nombre":"El Zanjón","provincia":{"id":"86","nombre":"Santiago del Estero"}},{"categoria":"Localidad simple","centroide":{"lat":-27.9125126696643,"lon":-64.1953803450085},"departamento":{"id":"86049","nombre":"Capital"},"funcion":null,"id":"86049040","municipio":{"id":null,"nombre":null},"nombre":"Los Cardozos","provincia":{"id":"86","nombre":"Santiago del Estero"}},{"categoria":"Localidad simple","centroide":{"lat":-27.8684490761323,"lon":-64.2176846841573},"departamento":{"id":"86049","nombre":"Capital"},"funcion":null,"id":"86049050","municipio":{"id":null,"nombre":null},"nombre":"Maco","provincia":{"id":"86","nombre":"Santiago del Estero"}},{"categoria":"Localidad simple","centroide":{"lat":-27.883071657444,"lon":-64.210364508634},"departamento":{"id":"86049","nombre":"Capital"},"funcion":null,"id":"86049060","municipio":{"id":null,"nombre":null},"nombre":"Maquito","provincia":{"id":"86","nombre":"Santiago del Estero"}},{"categoria":"Localidad simple","centroide":{"lat":-27.681136956593,"lon":-64.3628119718648},"departamento":{"id":"86049","nombre":"Capital"},"funcion":null,"id":"86049070","municipio":{"id":null,"nombre":null},"nombre":"Morales","provincia":{"id":"86","nombre":"Santiago del Estero"}},{"categoria":"Localidad simple","centroide":{"lat":-27.6663887276734,"lon":-64.3770291350394},"departamento":{"id":"86049","nombre":"Capital"},"funcion":null,"id":"86049080","municipio":{"id":null,"nombre":null},"nombre":"Puesto de San Antonio","provincia":{"id":"86","nombre":"Santiago del Estero"}},{"categoria":"Localidad simple","centroide":{"lat":-27.9463558793645,"lon":-64.1638901235678},"departamento":{"id":"86049","nombre":"Capital"},"funcion":null,"id":"86049090","municipio":{"id":null,"nombre":null},"nombre":"San Pedro","provincia":{"id":"86","nombre":"Santiago del Estero"}},{"categoria":"Localidad simple","centroide":{"lat":-27.9515163858504,"lon":-64.2196924435025},"departamento":{"id":"86049","nombre":"Capital"},"funcion":null,"id":"86049100","municipio":{"id":null,"nombre":null},"nombre":"Santa María","provincia":{"id":"86","nombre":"Santiago del Estero"}},{"categoria":"Componente de localidad compuesta","centroide":{"lat":-27.7906472093484,"lon":-64.2622741290181},"departamento":{"id":"86049","nombre":"Capital"},"funcion":"CAPITAL_PROVINCIA","id":"86049110","municipio":{"id":null,"nombre":null},"nombre":"Santiago del Estero","provincia":{"id":"86","nombre":"Santiago del Estero"}},{"categoria":"Localidad simple","centroide":{"lat":-27.8762024322533,"lon":-64.1878789215783},"departamento":{"id":"86049","nombre":"Capital"},"funcion":null,"id":"86049120","municipio":{"id":null,"nombre":null},"nombre":"Vuelta de la Barranca","provincia":{"id":"86","nombre":"Santiago del Estero"}},{"categoria":"Localidad simple","centroide":{"lat":-27.9106239556579,"lon":-64.2300554961572},"departamento":{"id":"86049","nombre":"Capital"},"funcion":null,"id":"86049130","municipio":{"id":null,"nombre":null},"nombre":"Yanda","provincia":{"id":"86","nombre":"Santiago del Estero"}},{"categoria":"Localidad simple","centroide":{"lat":-26.0165513217409,"lon":-62.3330208736258},"departamento":{"id":"86056","nombre":"Copo"},"funcion":null,"id":"86056010","municipio":{"id":null,"nombre":null},"nombre":"El Caburé","provincia":{"id":"86","nombre":"Santiago del Estero"}},{"categoria":"Localidad simple","centroide":{"lat":-25.9734494403489,"lon":-63.1213348208669},"departamento":{"id":"86056","nombre":"Copo"},"funcion":null,"id":"86056020","municipio":{"id":null,"nombre":null},"nombre":"La Firmeza","provincia":{"id":"86","nombre":"Santiago del Estero"}},{"categoria":"Localidad simple","centroide":{"lat":-26.1336342552401,"lon":-62.0623998821941},"departamento":{"id":"86056","nombre":"Copo"},"funcion":null,"id":"86056030","municipio":{"id":null,"nombre":null},"nombre":"Los Pirpintos","provincia":{"id":"86","nombre":"Santiago del Estero"}},{"categoria":"Localidad simple","centroide":{"lat":-25.9094984239476,"lon":-62.5920547989978},"departamento":{"id":"86056","nombre":"Copo"},"funcion":null,"id":"86056040","municipio":{"id":null,"nombre":null},"nombre":"Los Tigres","provincia":{"id":"86","nombre":"Santiago del Estero"}},{"categoria":"Localidad simple","centroide":{"lat":-25.8055238661729,"lon":-62.8421851386474},"departamento":{"id":"86056","nombre":"Copo"},"funcion":"CABECERA_DEPARTAMENTO","id":"86056050","municipio":{"id":null,"nombre":null},"nombre":"Monte Quemado","provincia":{"id":"86","nombre":"Santiago del Estero"}},{"categoria":"Localidad simple","centroide":{"lat":-26.033847347527,"lon":-63.3180059411213},"departamento":{"id":"86056","nombre":"Copo"},"funcion":null,"id":"86056060","municipio":{"id":null,"nombre":null},"nombre":"Nueva Esperanza","provincia":{"id":"86","nombre":"Santiago del Estero"}},{"categoria":"Localidad simple","centroide":{"lat":-26.2344065294949,"lon":-61.8376679266549},"departamento":{"id":"86056","nombre":"Copo"},"funcion":null,"id":"86056070","municipio":{"id":null,"nombre":null},"nombre":"Pampa de los Guanacos","provincia":{"id":"86","nombre":"Santiago del Estero"}},{"categoria":"Localidad simple","centroide":{"lat":-26.1203999513037,"lon":-63.7053351206531},"departamento":{"id":"86056","nombre":"Copo"},"funcion":null,"id":"86056080","municipio":{"id":null,"nombre":null},"nombre":"San José del Boquerón","provincia":{"id":"86","nombre":"Santiago del Estero"}},{"categoria":"Localidad simple","centroide":{"lat":-25.7123774702614,"lon":-63.0412762978269},"departamento":{"id":"86056","nombre":"Copo"},"funcion":null,"id":"86056090","municipio":{"id":null,"nombre":null},"nombre":"Urutaú","provincia":{"id":"86","nombre":"Santiago del Estero"}},{"categoria":"Localidad simple","centroide":{"lat":-28.4309064612063,"lon":-64.9233001766412},"departamento":{"id":"86063","nombre":"Choya"},"funcion":null,"id":"86063010","municipio":{"id":null,"nombre":null},"nombre":"Ancaján","provincia":{"id":"86","nombre":"Santiago del Estero"}},{"categoria":"Localidad simple","centroide":{"lat":-28.4942404547901,"lon":-64.8563028233751},"departamento":{"id":"86063","nombre":"Choya"},"funcion":null,"id":"86063020","municipio":{"id":null,"nombre":null},"nombre":"Choya","provincia":{"id":"86","nombre":"Santiago del Estero"}},{"categoria":"Localidad simple","centroide":{"lat":-28.4119636214997,"lon":-64.7564290050951},"departamento":{"id":"86063","nombre":"Choya"},"funcion":null,"id":"86063030","municipio":{"id":null,"nombre":null},"nombre":"Estación La Punta","provincia":{"id":"86","nombre":"Santiago del Estero"}},{"categoria":"Localidad simple","centroide":{"lat":-28.6399178570768,"lon":-65.130637009131},"departamento":{"id":"86063","nombre":"Choya"},"funcion":"CABECERA_DEPARTAMENTO","id":"86063040","municipio":{"id":null,"nombre":null},"nombre":"Frías","provincia":{"id":"86","nombre":"Santiago del Estero"}},{"categoria":"Localidad simple","centroide":{"lat":-28.3756319929951,"lon":-64.5305517169124},"departamento":{"id":"86063","nombre":"Choya"},"funcion":null,"id":"86063050","municipio":{"id":null,"nombre":null},"nombre":"Laprida","provincia":{"id":"86","nombre":"Santiago del Estero"}},{"categoria":"Localidad simple","centroide":{"lat":-28.4601109681789,"lon":-64.8665614531529},"departamento":{"id":"86063","nombre":"Choya"},"funcion":null,"id":"86063070","municipio":{"id":null,"nombre":null},"nombre":"San Pedro","provincia":{"id":"86","nombre":"Santiago del Estero"}},{"categoria":"Localidad simple","centroide":{"lat":-28.4037795215625,"lon":-65.0964321177706},"departamento":{"id":"86063","nombre":"Choya"},"funcion":null,"id":"86063080","municipio":{"id":null,"nombre":null},"nombre":"Tapso","provincia":{"id":"86","nombre":"Santiago del Estero"}},{"categoria":"Localidad simple","centroide":{"lat":-28.371365281259,"lon":-64.7921192520059},"departamento":{"id":"86063","nombre":"Choya"},"funcion":null,"id":"86063090","municipio":{"id":null,"nombre":null},"nombre":"Villa La Punta","provincia":{"id":"86","nombre":"Santiago del Estero"}},{"categoria":"Localidad simple","centroide":{"lat":-27.2724258053036,"lon":-63.5140111288855},"departamento":{"id":"86070","nombre":"Figueroa"},"funcion":null,"id":"86070010","municipio":{"id":null,"nombre":null},"nombre":"Bandera Bajada","provincia":{"id":"86","nombre":"Santiago del Estero"}},{"categoria":"Localidad simple","centroide":{"lat":-27.3907597837259,"lon":-63.5489564711117},"departamento":{"id":"86070","nombre":"Figueroa"},"funcion":null,"id":"86070020","municipio":{"id":null,"nombre":null},"nombre":"Caspi Corral","provincia":{"id":"86","nombre":"Santiago del Estero"}},{"categoria":"Localidad simple","centroide":{"lat":-27.617543825893,"lon":-63.301877607639},"departamento":{"id":"86070","nombre":"Figueroa"},"funcion":null,"id":"86070030","municipio":{"id":null,"nombre":null},"nombre":"Colonia San Juan","provincia":{"id":"86","nombre":"Santiago del Estero"}},{"categoria":"Localidad simple","centroide":{"lat":-27.5779248328345,"lon":-63.3309305482062},"departamento":{"id":"86070","nombre":"Figueroa"},"funcion":null,"id":"86070040","municipio":{"id":null,"nombre":null},"nombre":"El Crucero","provincia":{"id":"86","nombre":"Santiago del Estero"}},{"categoria":"Localidad simple","centroide":{"lat":-27.3845037887346,"lon":-63.5296772428548},"departamento":{"id":"86070","nombre":"Figueroa"},"funcion":null,"id":"86070050","municipio":{"id":null,"nombre":null},"nombre":"Kilómetro 30","provincia":{"id":"86","nombre":"Santiago del Estero"}},{"categoria":"Localidad simple","centroide":{"lat":-27.7113503879057,"lon":-63.776465678451},"departamento":{"id":"86070","nombre":"Figueroa"},"funcion":"CABECERA_DEPARTAMENTO","id":"86070060","municipio":{"id":null,"nombre":null},"nombre":"La Cañada","provincia":{"id":"86","nombre":"Santiago del Estero"}},{"categoria":"Localidad simple","centroide":{"lat":-27.3853384819687,"lon":-63.4863113485715},"departamento":{"id":"86070","nombre":"Figueroa"},"funcion":null,"id":"86070070","municipio":{"id":null,"nombre":null},"nombre":"La Invernada","provincia":{"id":"86","nombre":"Santiago del Estero"}},{"categoria":"Localidad simple","centroide":{"lat":-27.5383379504139,"lon":-63.3844467629454},"departamento":{"id":"86070","nombre":"Figueroa"},"funcion":null,"id":"86070080","municipio":{"id":null,"nombre":null},"nombre":"Minerva","provincia":{"id":"86","nombre":"Santiago del Estero"}},{"categoria":"Localidad simple","centroide":{"lat":-27.4744910479525,"lon":-63.4699371865895},"departamento":{"id":"86070","nombre":"Figueroa"},"funcion":null,"id":"86070090","municipio":{"id":null,"nombre":null},"nombre":"Vaca Huañuna","provincia":{"id":"86","nombre":"Santiago del Estero"}},{"categoria":"Localidad simple","centroide":{"lat":-27.7220223636284,"lon":-63.5077024611833},"departamento":{"id":"86070","nombre":"Figueroa"},"funcion":null,"id":"86070100","municipio":{"id":null,"nombre":null},"nombre":"Villa Figueroa","provincia":{"id":"86","nombre":"Santiago del Estero"}},{"categoria":"Localidad simple","centroide":{"lat":-28.4645613476513,"lon":-62.8371553125604},"departamento":{"id":"86077","nombre":"General Taboada"},"funcion":"CABECERA_DEPARTAMENTO","id":"86077010","municipio":{"id":null,"nombre":null},"nombre":"Añatuya","provincia":{"id":"86","nombre":"Santiago del Estero"}},{"categoria":"Localidad simple","centroide":{"lat":-28.7471563597272,"lon":-62.4500332099208},"departamento":{"id":"86077","nombre":"General Taboada"},"funcion":null,"id":"86077020","municipio":{"id":null,"nombre":null},"nombre":"Averías","provincia":{"id":"86","nombre":"Santiago del Estero"}},{"categoria":"Localidad simple","centroide":{"lat":-28.625400373791,"lon":-62.6050049232664},"departamento":{"id":"86077","nombre":"General Taboada"},"funcion":null,"id":"86077030","municipio":{"id":null,"nombre":null},"nombre":"Estación Tacañitas","provincia":{"id":"86","nombre":"Santiago del Estero"}},{"categoria":"Localidad simple","centroide":{"lat":-28.4600119281847,"lon":-61.8401411379321},"departamento":{"id":"86077","nombre":"General Taboada"},"funcion":null,"id":"86077040","municipio":{"id":null,"nombre":null},"nombre":"La Nena","provincia":{"id":"86","nombre":"Santiago del Estero"}},{"categoria":"Localidad simple","centroide":{"lat":-28.4678989822603,"lon":-62.1097288458217},"departamento":{"id":"86077","nombre":"General Taboada"},"funcion":null,"id":"86077050","municipio":{"id":null,"nombre":null},"nombre":"Los Juríes","provincia":{"id":"86","nombre":"Santiago del Estero"}},{"categoria":"Localidad simple","centroide":{"lat":-28.6023457181773,"lon":-62.1835145984131},"departamento":{"id":"86077","nombre":"General Taboada"},"funcion":null,"id":"86077060","municipio":{"id":null,"nombre":null},"nombre":"Tomás Young","provincia":{"id":"86","nombre":"Santiago del Estero"}},{"categoria":"Componente de localidad compuesta","centroide":{"lat":-28.1989652184743,"lon":-65.1121667400925},"departamento":{"id":"86084","nombre":"Guasayán"},"funcion":null,"id":"86084010","municipio":{"id":"100217","nombre":"Santa Rosa"},"nombre":"Lavalle","provincia":{"id":"86","nombre":"Santiago del Estero"}},{"categoria":"Componente de localidad compuesta","centroide":{"lat":-27.9573058480013,"lon":-65.1704506415815},"departamento":{"id":"86084","nombre":"Guasayán"},"funcion":"CABECERA_DEPARTAMENTO","id":"86084020","municipio":{"id":"100217","nombre":"Santa Rosa"},"nombre":"San Pedro","provincia":{"id":"86","nombre":"Santiago del Estero"}},{"categoria":"Localidad simple","centroide":{"lat":-26.7716728234233,"lon":-64.6015462356661},"departamento":{"id":"86091","nombre":"Jiménez"},"funcion":null,"id":"86091005","municipio":{"id":null,"nombre":null},"nombre":"El Arenal","provincia":{"id":"86","nombre":"Santiago del Estero"}},{"categoria":"Localidad simple","centroide":{"lat":-26.7184011548025,"lon":-64.3982906362897},"departamento":{"id":"86091","nombre":"Jiménez"},"funcion":null,"id":"86091010","municipio":{"id":null,"nombre":null},"nombre":"El Bobadal","provincia":{"id":"86","nombre":"Santiago del Estero"}},{"categoria":"Localidad simple","centroide":{"lat":-27.2257680209403,"lon":-64.7003027141644},"departamento":{"id":"86091","nombre":"Jiménez"},"funcion":null,"id":"86091020","municipio":{"id":null,"nombre":null},"nombre":"El Charco","provincia":{"id":"86","nombre":"Santiago del Estero"}},{"categoria":"Localidad simple","centroide":{"lat":-26.7333694233426,"lon":-64.4768351977429},"departamento":{"id":"86091","nombre":"Jiménez"},"funcion":null,"id":"86091030","municipio":{"id":null,"nombre":null},"nombre":"El Rincón","provincia":{"id":"86","nombre":"Santiago del Estero"}},{"categoria":"Localidad simple","centroide":{"lat":-27.2971935237082,"lon":-64.61075364749},"departamento":{"id":"86091","nombre":"Jiménez"},"funcion":null,"id":"86091040","municipio":{"id":null,"nombre":null},"nombre":"Gramilla","provincia":{"id":"86","nombre":"Santiago del Estero"}},{"categoria":"Localidad simple","centroide":{"lat":-27.0297706094061,"lon":-64.6107284533431},"departamento":{"id":"86091","nombre":"Jiménez"},"funcion":null,"id":"86091050","municipio":{"id":null,"nombre":null},"nombre":"Isca Yacu","provincia":{"id":"86","nombre":"Santiago del Estero"}},{"categoria":"Localidad simple","centroide":{"lat":-27.033281523993,"lon":-64.6122143434088},"departamento":{"id":"86091","nombre":"Jiménez"},"funcion":null,"id":"86091060","municipio":{"id":null,"nombre":null},"nombre":"Isca Yacu Semaul","provincia":{"id":"86","nombre":"Santiago del Estero"}},{"categoria":"Localidad simple","centroide":{"lat":-27.164621631919,"lon":-64.483386426973},"departamento":{"id":"86091","nombre":"Jiménez"},"funcion":"CABECERA_DEPARTAMENTO","id":"86091070","municipio":{"id":null,"nombre":null},"nombre":"Pozo Hondo","provincia":{"id":"86","nombre":"Santiago del Estero"}},{"categoria":"Localidad simple","centroide":{"lat":-26.7405309182605,"lon":-64.3965511764775},"departamento":{"id":"86091","nombre":"Jiménez"},"funcion":null,"id":"86091080","municipio":{"id":null,"nombre":null},"nombre":"San Pedro","provincia":{"id":"86","nombre":"Santiago del Estero"}},{"categoria":"Localidad simple","centroide":{"lat":-27.916852444404,"lon":-62.1779644703931},"departamento":{"id":"86098","nombre":"Juan F. Ibarra"},"funcion":null,"id":"86098010","municipio":{"id":null,"nombre":null},"nombre":"El Colorado","provincia":{"id":"86","nombre":"Santiago del Estero"}},{"categoria":"Localidad simple","centroide":{"lat":-28.2978508912148,"lon":-61.8013595132333},"departamento":{"id":"86098","nombre":"Juan F. Ibarra"},"funcion":null,"id":"86098020","municipio":{"id":null,"nombre":null},"nombre":"El Cuadrado","provincia":{"id":"86","nombre":"Santiago del Estero"}},{"categoria":"Localidad simple","centroide":{"lat":-28.110413912625,"lon":-63.1950712509572},"departamento":{"id":"86098","nombre":"Juan F. Ibarra"},"funcion":null,"id":"86098030","municipio":{"id":null,"nombre":null},"nombre":"Matará","provincia":{"id":"86","nombre":"Santiago del Estero"}},{"categoria":"Localidad simple","centroide":{"lat":-27.9373441459042,"lon":-63.4286561024091},"departamento":{"id":"86098","nombre":"Juan F. Ibarra"},"funcion":"CABECERA_DEPARTAMENTO","id":"86098040","municipio":{"id":null,"nombre":null},"nombre":"Suncho Corral","provincia":{"id":"86","nombre":"Santiago del Estero"}},{"categoria":"Localidad simple","centroide":{"lat":-27.9593446946828,"lon":-62.6095801174635},"departamento":{"id":"86098","nombre":"Juan F. Ibarra"},"funcion":null,"id":"86098050","municipio":{"id":null,"nombre":null},"nombre":"Vilelas","provincia":{"id":"86","nombre":"Santiago del Estero"}},{"categoria":"Localidad simple","centroide":{"lat":-27.7812827220804,"lon":-62.9762834233876},"departamento":{"id":"86098","nombre":"Juan F. Ibarra"},"funcion":null,"id":"86098060","municipio":{"id":null,"nombre":null},"nombre":"Yuchán","provincia":{"id":"86","nombre":"Santiago del Estero"}},{"categoria":"Localidad simple","centroide":{"lat":-28.3039639606794,"lon":-64.1851457926154},"departamento":{"id":"86105","nombre":"Loreto"},"funcion":"CABECERA_DEPARTAMENTO","id":"86105010","municipio":{"id":null,"nombre":null},"nombre":"Villa San Martín (Est. Loreto)","provincia":{"id":"86","nombre":"Santiago del Estero"}},{"categoria":"Localidad simple","centroide":{"lat":-29.4169970813328,"lon":-62.7903866994546},"departamento":{"id":"86112","nombre":"Mitre"},"funcion":"CABECERA_DEPARTAMENTO","id":"86112010","municipio":{"id":null,"nombre":null},"nombre":"Villa Unión","provincia":{"id":"86","nombre":"Santiago del Estero"}},{"categoria":"Localidad simple","centroide":{"lat":-27.2367908165246,"lon":-62.3796548631942},"departamento":{"id":"86119","nombre":"Moreno"},"funcion":null,"id":"86119010","municipio":{"id":null,"nombre":null},"nombre":"Aerolito","provincia":{"id":"86","nombre":"Santiago del Estero"}},{"categoria":"Localidad simple","centroide":{"lat":-27.1327719671086,"lon":-62.5491667779808},"departamento":{"id":"86119","nombre":"Moreno"},"funcion":null,"id":"86119020","municipio":{"id":null,"nombre":null},"nombre":"Alhuampa","provincia":{"id":"86","nombre":"Santiago del Estero"}},{"categoria":"Localidad simple","centroide":{"lat":-27.0720923042891,"lon":-62.6462009108307},"departamento":{"id":"86119","nombre":"Moreno"},"funcion":null,"id":"86119030","municipio":{"id":null,"nombre":null},"nombre":"Hasse","provincia":{"id":"86","nombre":"Santiago del Estero"}},{"categoria":"Localidad simple","centroide":{"lat":-27.1785919494814,"lon":-62.4685537207534},"departamento":{"id":"86119","nombre":"Moreno"},"funcion":null,"id":"86119040","municipio":{"id":null,"nombre":null},"nombre":"Hernán Mejía Miraval","provincia":{"id":"86","nombre":"Santiago del Estero"}},{"categoria":"Localidad simple","centroide":{"lat":-27.4618186135826,"lon":-62.9188082355465},"departamento":{"id":"86119","nombre":"Moreno"},"funcion":null,"id":"86119050","municipio":{"id":null,"nombre":null},"nombre":"Las Tinajas","provincia":{"id":"86","nombre":"Santiago del Estero"}},{"categoria":"Localidad simple","centroide":{"lat":-27.0762151680819,"lon":-63.0708907011301},"departamento":{"id":"86119","nombre":"Moreno"},"funcion":null,"id":"86119060","municipio":{"id":null,"nombre":null},"nombre":"Libertad","provincia":{"id":"86","nombre":"Santiago del Estero"}},{"categoria":"Localidad simple","centroide":{"lat":-26.9408021196944,"lon":-62.9565689431121},"departamento":{"id":"86119","nombre":"Moreno"},"funcion":null,"id":"86119070","municipio":{"id":null,"nombre":null},"nombre":"Lilo Viejo","provincia":{"id":"86","nombre":"Santiago del Estero"}},{"categoria":"Localidad simple","centroide":{"lat":-26.843267415023,"lon":-62.9328920767785},"departamento":{"id":"86119","nombre":"Moreno"},"funcion":null,"id":"86119080","municipio":{"id":null,"nombre":null},"nombre":"Patay","provincia":{"id":"86","nombre":"Santiago del Estero"}},{"categoria":"Localidad simple","centroide":{"lat":-27.3309034121122,"lon":-62.2263991173581},"departamento":{"id":"86119","nombre":"Moreno"},"funcion":null,"id":"86119090","municipio":{"id":null,"nombre":null},"nombre":"Pueblo Pablo Torelo","provincia":{"id":"86","nombre":"Santiago del Estero"}},{"categoria":"Localidad simple","centroide":{"lat":-27.6502221618861,"lon":-62.4162413545379},"departamento":{"id":"86119","nombre":"Moreno"},"funcion":"CABECERA_DEPARTAMENTO","id":"86119100","municipio":{"id":null,"nombre":null},"nombre":"Quimili","provincia":{"id":"86","nombre":"Santiago del Estero"}},{"categoria":"Localidad simple","centroide":{"lat":-27.593467554452,"lon":-61.9454404681047},"departamento":{"id":"86119","nombre":"Moreno"},"funcion":null,"id":"86119110","municipio":{"id":null,"nombre":null},"nombre":"Roversi","provincia":{"id":"86","nombre":"Santiago del Estero"}},{"categoria":"Localidad simple","centroide":{"lat":-27.0269428383778,"lon":-62.7014758111564},"departamento":{"id":"86119","nombre":"Moreno"},"funcion":null,"id":"86119120","municipio":{"id":null,"nombre":null},"nombre":"Tintina","provincia":{"id":"86","nombre":"Santiago del Estero"}},{"categoria":"Localidad simple","centroide":{"lat":-27.3177468248599,"lon":-62.5883450951591},"departamento":{"id":"86119","nombre":"Moreno"},"funcion":null,"id":"86119130","municipio":{"id":null,"nombre":null},"nombre":"Weisburd","provincia":{"id":"86","nombre":"Santiago del Estero"}},{"categoria":"Localidad simple","centroide":{"lat":-29.0559761149567,"lon":-63.9559623784872},"departamento":{"id":"86126","nombre":"Ojo de Agua"},"funcion":null,"id":"86126010","municipio":{"id":null,"nombre":null},"nombre":"El 49","provincia":{"id":"86","nombre":"Santiago del Estero"}},{"categoria":"Localidad simple","centroide":{"lat":-29.562340331816,"lon":-63.4575916015313},"departamento":{"id":"86126","nombre":"Ojo de Agua"},"funcion":null,"id":"86126020","municipio":{"id":null,"nombre":null},"nombre":"Sol de Julio","provincia":{"id":"86","nombre":"Santiago del Estero"}},{"categoria":"Localidad simple","centroide":{"lat":-29.5029027910505,"lon":-63.6939738398896},"departamento":{"id":"86126","nombre":"Ojo de Agua"},"funcion":"CABECERA_DEPARTAMENTO","id":"86126030","municipio":{"id":null,"nombre":null},"nombre":"Villa Ojo de Agua","provincia":{"id":"86","nombre":"Santiago del Estero"}},{"categoria":"Localidad simple","centroide":{"lat":-26.094177918867,"lon":-64.3077511775357},"departamento":{"id":"86133","nombre":"Pellegrini"},"funcion":null,"id":"86133010","municipio":{"id":null,"nombre":null},"nombre":"El Mojón","provincia":{"id":"86","nombre":"Santiago del Estero"}},{"categoria":"Localidad simple","centroide":{"lat":-26.6821239251425,"lon":-64.0011052202083},"departamento":{"id":"86133","nombre":"Pellegrini"},"funcion":null,"id":"86133020","municipio":{"id":null,"nombre":null},"nombre":"Las Delicias","provincia":{"id":"86","nombre":"Santiago del Estero"}},{"categoria":"Localidad simple","centroide":{"lat":-26.2029493632974,"lon":-64.2386862818792},"departamento":{"id":"86133","nombre":"Pellegrini"},"funcion":"CABECERA_DEPARTAMENTO","id":"86133030","municipio":{"id":null,"nombre":null},"nombre":"Nueva Esperanza","provincia":{"id":"86","nombre":"Santiago del Estero"}},{"categoria":"Localidad simple","centroide":{"lat":-26.4117975451662,"lon":-64.3406016723268},"departamento":{"id":"86133","nombre":"Pellegrini"},"funcion":null,"id":"86133040","municipio":{"id":null,"nombre":null},"nombre":"Pozo Betbeder","provincia":{"id":"86","nombre":"Santiago del Estero"}},{"categoria":"Localidad simple","centroide":{"lat":-26.3973763982116,"lon":-64.5044626210659},"departamento":{"id":"86133","nombre":"Pellegrini"},"funcion":null,"id":"86133050","municipio":{"id":null,"nombre":null},"nombre":"Rapelli","provincia":{"id":"86","nombre":"Santiago del Estero"}},{"categoria":"Localidad simple","centroide":{"lat":-26.2295353888576,"lon":-63.7775041035997},"departamento":{"id":"86133","nombre":"Pellegrini"},"funcion":null,"id":"86133060","municipio":{"id":null,"nombre":null},"nombre":"Santo Domingo","provincia":{"id":"86","nombre":"Santiago del Estero"}},{"categoria":"Localidad simple","centroide":{"lat":-29.2346591274202,"lon":-63.4745902285706},"departamento":{"id":"86140","nombre":"Quebrachos"},"funcion":null,"id":"86140010","municipio":{"id":null,"nombre":null},"nombre":"Ramírez de Velazco","provincia":{"id":"86","nombre":"Santiago del Estero"}},{"categoria":"Localidad simple","centroide":{"lat":-29.3856768376799,"lon":-63.4739812028011},"departamento":{"id":"86140","nombre":"Quebrachos"},"funcion":"CABECERA_DEPARTAMENTO","id":"86140020","municipio":{"id":null,"nombre":null},"nombre":"Sumampa","provincia":{"id":"86","nombre":"Santiago del Estero"}},{"categoria":"Localidad simple","centroide":{"lat":-29.3873857117046,"lon":-63.4413442606189},"departamento":{"id":"86140","nombre":"Quebrachos"},"funcion":null,"id":"86140030","municipio":{"id":null,"nombre":null},"nombre":"Sumampa Viejo","provincia":{"id":"86","nombre":"Santiago del Estero"}},{"categoria":"Localidad simple","centroide":{"lat":-27.566815560625,"lon":-64.6802356354788},"departamento":{"id":"86147","nombre":"Río Hondo"},"funcion":null,"id":"86147010","municipio":{"id":null,"nombre":null},"nombre":"Chañar Pozo de Abajo","provincia":{"id":"86","nombre":"Santiago del Estero"}},{"categoria":"Localidad simple","centroide":{"lat":-27.5214742780514,"lon":-64.5558862404344},"departamento":{"id":"86147","nombre":"Río Hondo"},"funcion":null,"id":"86147020","municipio":{"id":null,"nombre":null},"nombre":"Chauchillas","provincia":{"id":"86","nombre":"Santiago del Estero"}},{"categoria":"Localidad simple","centroide":{"lat":-27.4319202445614,"lon":-64.9313037647627},"departamento":{"id":"86147","nombre":"Río Hondo"},"funcion":null,"id":"86147030","municipio":{"id":null,"nombre":null},"nombre":"Colonia Tinco","provincia":{"id":"86","nombre":"Santiago del Estero"}},{"categoria":"Localidad simple","centroide":{"lat":-27.2348881521517,"lon":-64.697822026062},"departamento":{"id":"86147","nombre":"Río Hondo"},"funcion":null,"id":"86147040","municipio":{"id":null,"nombre":null},"nombre":"El Charco","provincia":{"id":"86","nombre":"Santiago del Estero"}},{"categoria":"Localidad simple","centroide":{"lat":-27.3020072164497,"lon":-64.6130855140247},"departamento":{"id":"86147","nombre":"Río Hondo"},"funcion":null,"id":"86147050","municipio":{"id":null,"nombre":null},"nombre":"Gramilla","provincia":{"id":"86","nombre":"Santiago del Estero"}},{"categoria":"Localidad simple","centroide":{"lat":-27.4563912240441,"lon":-64.9277000920229},"departamento":{"id":"86147","nombre":"Río Hondo"},"funcion":null,"id":"86147060","municipio":{"id":null,"nombre":null},"nombre":"La Nueva Donosa","provincia":{"id":"86","nombre":"Santiago del Estero"}},{"categoria":"Localidad simple","centroide":{"lat":-27.4719466367193,"lon":-64.615993605497},"departamento":{"id":"86147","nombre":"Río Hondo"},"funcion":null,"id":"86147070","municipio":{"id":null,"nombre":null},"nombre":"Los Miranda","provincia":{"id":"86","nombre":"Santiago del Estero"}},{"categoria":"Localidad simple","centroide":{"lat":-27.5338396475268,"lon":-64.5310863310616},"departamento":{"id":"86147","nombre":"Río Hondo"},"funcion":null,"id":"86147080","municipio":{"id":null,"nombre":null},"nombre":"Los Núñez","provincia":{"id":"86","nombre":"Santiago del Estero"}},{"categoria":"Localidad simple","centroide":{"lat":-27.4611344607229,"lon":-64.9065546199272},"departamento":{"id":"86147","nombre":"Río Hondo"},"funcion":null,"id":"86147090","municipio":{"id":null,"nombre":null},"nombre":"Mansupa","provincia":{"id":"86","nombre":"Santiago del Estero"}},{"categoria":"Localidad simple","centroide":{"lat":-27.3041200176407,"lon":-64.7530797214091},"departamento":{"id":"86147","nombre":"Río Hondo"},"funcion":null,"id":"86147100","municipio":{"id":null,"nombre":null},"nombre":"Pozuelos","provincia":{"id":"86","nombre":"Santiago del Estero"}},{"categoria":"Localidad simple","centroide":{"lat":-27.5527256617804,"lon":-64.5111174447533},"departamento":{"id":"86147","nombre":"Río Hondo"},"funcion":null,"id":"86147110","municipio":{"id":null,"nombre":null},"nombre":"Rodeo de Valdez","provincia":{"id":"86","nombre":"Santiago del Estero"}},{"categoria":"Localidad simple","centroide":{"lat":-27.491671176486,"lon":-64.6013992349245},"departamento":{"id":"86147","nombre":"Río Hondo"},"funcion":null,"id":"86147120","municipio":{"id":null,"nombre":null},"nombre":"El Sauzal","provincia":{"id":"86","nombre":"Santiago del Estero"}},{"categoria":"Localidad simple","centroide":{"lat":-27.5012564484806,"lon":-64.8552586634364},"departamento":{"id":"86147","nombre":"Río Hondo"},"funcion":"CABECERA_DEPARTAMENTO","id":"86147130","municipio":{"id":null,"nombre":null},"nombre":"Termas de Río Hondo","provincia":{"id":"86","nombre":"Santiago del Estero"}},{"categoria":"Localidad simple","centroide":{"lat":-27.574990170048,"lon":-64.4753061878465},"departamento":{"id":"86147","nombre":"Río Hondo"},"funcion":null,"id":"86147140","municipio":{"id":null,"nombre":null},"nombre":"Villa Giménez","provincia":{"id":"86","nombre":"Santiago del Estero"}},{"categoria":"Localidad simple","centroide":{"lat":-27.5983201543603,"lon":-64.8739939701803},"departamento":{"id":"86147","nombre":"Río Hondo"},"funcion":null,"id":"86147150","municipio":{"id":null,"nombre":null},"nombre":"Villa Río Hondo","provincia":{"id":"86","nombre":"Santiago del Estero"}},{"categoria":"Localidad simple","centroide":{"lat":-27.516849315862,"lon":-64.9027287200084},"departamento":{"id":"86147","nombre":"Río Hondo"},"funcion":null,"id":"86147160","municipio":{"id":null,"nombre":null},"nombre":"Villa Turística del Embalse de Rio Hondo","provincia":{"id":"86","nombre":"Santiago del Estero"}},{"categoria":"Localidad simple","centroide":{"lat":-27.379706365694,"lon":-64.7967473078135},"departamento":{"id":"86147","nombre":"Río Hondo"},"funcion":null,"id":"86147170","municipio":{"id":null,"nombre":null},"nombre":"Vinará","provincia":{"id":"86","nombre":"Santiago del Estero"}},{"categoria":"Localidad simple","centroide":{"lat":-30.0603796584751,"lon":-62.1051312621271},"departamento":{"id":"86154","nombre":"Rivadavia"},"funcion":null,"id":"86154010","municipio":{"id":null,"nombre":null},"nombre":"Colonia Alpina","provincia":{"id":"86","nombre":"Santiago del Estero"}},{"categoria":"Localidad simple","centroide":{"lat":-29.6773076972314,"lon":-62.1374427216007},"departamento":{"id":"86154","nombre":"Rivadavia"},"funcion":null,"id":"86154020","municipio":{"id":null,"nombre":null},"nombre":"Palo Negro","provincia":{"id":"86","nombre":"Santiago del Estero"}},{"categoria":"Localidad simple","centroide":{"lat":-29.7604898000173,"lon":-62.0525063759069},"departamento":{"id":"86154","nombre":"Rivadavia"},"funcion":"CABECERA_DEPARTAMENTO","id":"86154030","municipio":{"id":null,"nombre":null},"nombre":"Selva","provincia":{"id":"86","nombre":"Santiago del Estero"}},{"categoria":"Localidad simple","centroide":{"lat":-27.7226465873966,"lon":-63.8598770739209},"departamento":{"id":"86161","nombre":"Robles"},"funcion":null,"id":"86161020","municipio":{"id":null,"nombre":null},"nombre":"Colonia El Simbolar","provincia":{"id":"86","nombre":"Santiago del Estero"}},{"categoria":"Localidad simple","centroide":{"lat":-27.9241249979993,"lon":-63.8937760389577},"departamento":{"id":"86161","nombre":"Robles"},"funcion":"CABECERA_DEPARTAMENTO","id":"86161030","municipio":{"id":null,"nombre":null},"nombre":"Fernández","provincia":{"id":"86","nombre":"Santiago del Estero"}},{"categoria":"Localidad simple","centroide":{"lat":-27.8774908793598,"lon":-63.979135921475},"departamento":{"id":"86161","nombre":"Robles"},"funcion":null,"id":"86161040","municipio":{"id":null,"nombre":null},"nombre":"Ingeniero Forres","provincia":{"id":"86","nombre":"Santiago del Estero"}},{"categoria":"Localidad simple","centroide":{"lat":-27.7878023282581,"lon":-64.1510014560828},"departamento":{"id":"86161","nombre":"Robles"},"funcion":null,"id":"86161050","municipio":{"id":null,"nombre":null},"nombre":"Vilmer","provincia":{"id":"86","nombre":"Santiago del Estero"}},{"categoria":"Localidad simple","centroide":{"lat":-28.796459373074,"lon":-63.5791247989505},"departamento":{"id":"86168","nombre":"Salavina"},"funcion":null,"id":"86168010","municipio":{"id":null,"nombre":null},"nombre":"Chilca Juliana","provincia":{"id":"86","nombre":"Santiago del Estero"}},{"categoria":"Localidad simple","centroide":{"lat":-28.9858790620734,"lon":-63.4474428106687},"departamento":{"id":"86168","nombre":"Salavina"},"funcion":"CABECERA_DEPARTAMENTO","id":"86168020","municipio":{"id":null,"nombre":null},"nombre":"Los Telares","provincia":{"id":"86","nombre":"Santiago del Estero"}},{"categoria":"Localidad simple","centroide":{"lat":-28.804933488379,"lon":-63.4286953351841},"departamento":{"id":"86168","nombre":"Salavina"},"funcion":null,"id":"86168030","municipio":{"id":null,"nombre":null},"nombre":"Villa Salavina","provincia":{"id":"86","nombre":"Santiago del Estero"}},{"categoria":"Localidad simple","centroide":{"lat":-28.2433820721478,"lon":-63.9464098988816},"departamento":{"id":"86175","nombre":"San Martín"},"funcion":"CABECERA_DEPARTAMENTO","id":"86175010","municipio":{"id":null,"nombre":null},"nombre":"Brea Pozo","provincia":{"id":"86","nombre":"Santiago del Estero"}},{"categoria":"Localidad simple","centroide":{"lat":-28.0511950311521,"lon":-63.9907281128401},"departamento":{"id":"86175","nombre":"San Martín"},"funcion":null,"id":"86175020","municipio":{"id":null,"nombre":null},"nombre":"Estación Robles","provincia":{"id":"86","nombre":"Santiago del Estero"}},{"categoria":"Localidad simple","centroide":{"lat":-28.0088248181919,"lon":-63.745495295948},"departamento":{"id":"86175","nombre":"San Martín"},"funcion":null,"id":"86175030","municipio":{"id":null,"nombre":null},"nombre":"Estación Taboada","provincia":{"id":"86","nombre":"Santiago del Estero"}},{"categoria":"Localidad simple","centroide":{"lat":-28.3143322879508,"lon":-63.995766608663},"departamento":{"id":"86175","nombre":"San Martín"},"funcion":null,"id":"86175040","municipio":{"id":null,"nombre":null},"nombre":"Villa Nueva","provincia":{"id":"86","nombre":"Santiago del Estero"}},{"categoria":"Localidad simple","centroide":{"lat":-28.1529581822136,"lon":-63.5345160915478},"departamento":{"id":"86182","nombre":"Sarmiento"},"funcion":"CABECERA_DEPARTAMENTO","id":"86182010","municipio":{"id":null,"nombre":null},"nombre":"Garza","provincia":{"id":"86","nombre":"Santiago del Estero"}},{"categoria":"Localidad simple","centroide":{"lat":-28.0530238668842,"lon":-64.2227939749583},"departamento":{"id":"86189","nombre":"Silípica"},"funcion":"CABECERA_DEPARTAMENTO","id":"86189010","municipio":{"id":null,"nombre":null},"nombre":"Árraga","provincia":{"id":"86","nombre":"Santiago del Estero"}},{"categoria":"Localidad simple","centroide":{"lat":-28.1833426920499,"lon":-64.1968111536257},"departamento":{"id":"86189","nombre":"Silípica"},"funcion":null,"id":"86189020","municipio":{"id":null,"nombre":null},"nombre":"Nueva Francia","provincia":{"id":"86","nombre":"Santiago del Estero"}},{"categoria":"Localidad simple","centroide":{"lat":-28.1030540788067,"lon":-64.2130484994317},"departamento":{"id":"86189","nombre":"Silípica"},"funcion":null,"id":"86189030","municipio":{"id":null,"nombre":null},"nombre":"Simbol","provincia":{"id":"86","nombre":"Santiago del Estero"}},{"categoria":"Localidad simple","centroide":{"lat":-28.1717134352764,"lon":-64.101040971413},"departamento":{"id":"86189","nombre":"Silípica"},"funcion":null,"id":"86189040","municipio":{"id":null,"nombre":null},"nombre":"Sumamao","provincia":{"id":"86","nombre":"Santiago del Estero"}},{"categoria":"Localidad simple","centroide":{"lat":-28.1105007595588,"lon":-64.1476921495566},"departamento":{"id":"86189","nombre":"Silípica"},"funcion":null,"id":"86189050","municipio":{"id":null,"nombre":null},"nombre":"Villa Silípica","provincia":{"id":"86","nombre":"Santiago del Estero"}},{"categoria":"Localidad simple","centroide":{"lat":-27.8315913828113,"lon":-64.061379252439},"departamento":{"id":"86161","nombre":"Robles"},"funcion":null,"id":"86161010","municipio":{"id":null,"nombre":null},"nombre":"Beltrán","provincia":{"id":"86","nombre":"Santiago del Estero"}}],"parametros":{"max":600,"provincia":["86"]},"total":165}